[
  {
    "city": "Bogotá", 
    "lat": "4.6126", 
    "lng": "-74.0705", 
    "country": "Colombia", 
    "iso2": "CO", 
    "admin_name": "Bogotá", 
    "capital": "primary", 
    "population": "9464000", 
    "population_proper": "7963000"
  }, 
  {
    "city": "Medellín", 
    "lat": "6.2447", 
    "lng": "-75.5748", 
    "country": "Colombia", 
    "iso2": "CO", 
    "admin_name": "Antioquia", 
    "capital": "admin", 
    "population": "2529403", 
    "population_proper": "2529403"
  }, 
  {
    "city": "Cali", 
    "lat": "3.4400", 
    "lng": "-76.5197", 
    "country": "Colombia", 
    "iso2": "CO", 
    "admin_name": "Valle del Cauca", 
    "capital": "admin", 
    "population": "2471474", 
    "population_proper": "2471474"
  }, 
  {
    "city": "Barranquilla", 
    "lat": "10.9639", 
    "lng": "-74.7964", 
    "country": "Colombia", 
    "iso2": "CO", 
    "admin_name": "Atlántico", 
    "capital": "admin", 
    "population": "1274250", 
    "population_proper": "1274250"
  }, 
  {
    "city": "Cartagena", 
    "lat": "10.4236", 
    "lng": "-75.5253", 
    "country": "Colombia", 
    "iso2": "CO", 
    "admin_name": "Bolívar", 
    "capital": "admin", 
    "population": "1036412", 
    "population_proper": "1036412"
  }, 
  {
    "city": "Soacha", 
    "lat": "4.5781", 
    "lng": "-74.2144", 
    "country": "Colombia", 
    "iso2": "CO", 
    "admin_name": "Cundinamarca", 
    "capital": "minor", 
    "population": "995268", 
    "population_proper": "995268"
  }, 
  {
    "city": "Palermo", 
    "lat": "2.8883", 
    "lng": "-75.4339", 
    "country": "Colombia", 
    "iso2": "CO", 
    "admin_name": "Huila", 
    "capital": "minor", 
    "population": "800000", 
    "population_proper": "800000"
  }, 
  {
    "city": "Cúcuta", 
    "lat": "7.9075", 
    "lng": "-72.5047", 
    "country": "Colombia", 
    "iso2": "CO", 
    "admin_name": "Norte de Santander", 
    "capital": "admin", 
    "population": "750000", 
    "population_proper": "750000"
  }, 
  {
    "city": "Soledad", 
    "lat": "10.9200", 
    "lng": "-74.7700", 
    "country": "Colombia", 
    "iso2": "CO", 
    "admin_name": "Atlántico", 
    "capital": "minor", 
    "population": "698852", 
    "population_proper": "342556"
  }, 
  {
    "city": "Pereira", 
    "lat": "4.8143", 
    "lng": "-75.6946", 
    "country": "Colombia", 
    "iso2": "CO", 
    "admin_name": "Risaralda", 
    "capital": "admin", 
    "population": "590554", 
    "population_proper": "590554"
  }, 
  {
    "city": "Bucaramanga", 
    "lat": "7.1186", 
    "lng": "-73.1161", 
    "country": "Colombia", 
    "iso2": "CO", 
    "admin_name": "Santander", 
    "capital": "admin", 
    "population": "581130", 
    "population_proper": "581130"
  }, 
  {
    "city": "Valledupar", 
    "lat": "10.4603", 
    "lng": "-73.2597", 
    "country": "Colombia", 
    "iso2": "CO", 
    "admin_name": "Cesar", 
    "capital": "admin", 
    "population": "544134", 
    "population_proper": "544134"
  }, 
  {
    "city": "Ibagué", 
    "lat": "4.4378", 
    "lng": "-75.2006", 
    "country": "Colombia", 
    "iso2": "CO", 
    "admin_name": "Tolima", 
    "capital": "admin", 
    "population": "541101", 
    "population_proper": "541101"
  }, 
  {
    "city": "Villavicencio", 
    "lat": "4.1425", 
    "lng": "-73.6294", 
    "country": "Colombia", 
    "iso2": "CO", 
    "admin_name": "Meta", 
    "capital": "admin", 
    "population": "527668", 
    "population_proper": "527668"
  }, 
  {
    "city": "Santa Marta", 
    "lat": "11.2361", 
    "lng": "-74.2017", 
    "country": "Colombia", 
    "iso2": "CO", 
    "admin_name": "Magdalena", 
    "capital": "admin", 
    "population": "515556", 
    "population_proper": "515556"
  }, 
  {
    "city": "Montería", 
    "lat": "8.7600", 
    "lng": "-75.8856", 
    "country": "Colombia", 
    "iso2": "CO", 
    "admin_name": "Córdoba", 
    "capital": "admin", 
    "population": "505334", 
    "population_proper": "505334"
  }, 
  {
    "city": "Manizales", 
    "lat": "5.0661", 
    "lng": "-75.4847", 
    "country": "Colombia", 
    "iso2": "CO", 
    "admin_name": "Caldas", 
    "capital": "admin", 
    "population": "434403", 
    "population_proper": "434403"
  }, 
  {
    "city": "Buenaventura", 
    "lat": "3.8772", 
    "lng": "-77.0267", 
    "country": "Colombia", 
    "iso2": "CO", 
    "admin_name": "Valle del Cauca", 
    "capital": "minor", 
    "population": "423927", 
    "population_proper": "423927"
  }, 
  {
    "city": "Pasto", 
    "lat": "1.2136", 
    "lng": "-77.2811", 
    "country": "Colombia", 
    "iso2": "CO", 
    "admin_name": "Nariño", 
    "capital": "admin", 
    "population": "382236", 
    "population_proper": "360041"
  }, 
  {
    "city": "Bello", 
    "lat": "6.3319", 
    "lng": "-75.5581", 
    "country": "Colombia", 
    "iso2": "CO", 
    "admin_name": "Antioquia", 
    "capital": "minor", 
    "population": "371591", 
    "population_proper": "371591"
  }, 
  {
    "city": "Neiva", 
    "lat": "2.9275", 
    "lng": "-75.2875", 
    "country": "Colombia", 
    "iso2": "CO", 
    "admin_name": "Huila", 
    "capital": "admin", 
    "population": "353033", 
    "population_proper": "353033"
  }, 
  {
    "city": "Armenia", 
    "lat": "4.5389", 
    "lng": "-75.6725", 
    "country": "Colombia", 
    "iso2": "CO", 
    "admin_name": "Quindío", 
    "capital": "admin", 
    "population": "301226", 
    "population_proper": "301226"
  }, 
  {
    "city": "Popayán", 
    "lat": "2.4411", 
    "lng": "-76.6061", 
    "country": "Colombia", 
    "iso2": "CO", 
    "admin_name": "Cauca", 
    "capital": "admin", 
    "population": "300837", 
    "population_proper": "300837"
  }, 
  {
    "city": "Sincelejo", 
    "lat": "9.2994", 
    "lng": "-75.3958", 
    "country": "Colombia", 
    "iso2": "CO", 
    "admin_name": "Sucre", 
    "capital": "admin", 
    "population": "286716", 
    "population_proper": "286716"
  }, 
  {
    "city": "Floridablanca", 
    "lat": "7.0697", 
    "lng": "-73.0978", 
    "country": "Colombia", 
    "iso2": "CO", 
    "admin_name": "Santander", 
    "capital": "minor", 
    "population": "267170", 
    "population_proper": "267170"
  }, 
  {
    "city": "Itagüí", 
    "lat": "6.1726", 
    "lng": "-75.6096", 
    "country": "Colombia", 
    "iso2": "CO", 
    "admin_name": "Antioquia", 
    "capital": "minor", 
    "population": "235016", 
    "population_proper": "235016"
  }, 
  {
    "city": "Envigado", 
    "lat": "6.1719", 
    "lng": "-75.5803", 
    "country": "Colombia", 
    "iso2": "CO", 
    "admin_name": "Antioquia", 
    "capital": "minor", 
    "population": "228848", 
    "population_proper": "228848"
  }, 
  {
    "city": "Tuluá", 
    "lat": "4.0847", 
    "lng": "-76.1986", 
    "country": "Colombia", 
    "iso2": "CO", 
    "admin_name": "Valle del Cauca", 
    "capital": "minor", 
    "population": "219138", 
    "population_proper": "219138"
  }, 
  {
    "city": "Tumaco", 
    "lat": "1.8067", 
    "lng": "-78.7647", 
    "country": "Colombia", 
    "iso2": "CO", 
    "admin_name": "Nariño", 
    "capital": "minor", 
    "population": "212692", 
    "population_proper": "212692"
  }, 
  {
    "city": "Barrancabermeja", 
    "lat": "7.0675", 
    "lng": "-73.8472", 
    "country": "Colombia", 
    "iso2": "CO", 
    "admin_name": "Santander", 
    "capital": "minor", 
    "population": "210729", 
    "population_proper": "210729"
  }, 
  {
    "city": "Tunja", 
    "lat": "5.5403", 
    "lng": "-73.3614", 
    "country": "Colombia", 
    "iso2": "CO", 
    "admin_name": "Boyacá", 
    "capital": "admin", 
    "population": "209263", 
    "population_proper": "209263"
  }, 
  {
    "city": "Zipaquirá", 
    "lat": "5.0247", 
    "lng": "-74.0014", 
    "country": "Colombia", 
    "iso2": "CO", 
    "admin_name": "Cundinamarca", 
    "capital": "minor", 
    "population": "196409", 
    "population_proper": "196409"
  }, 
  {
    "city": "Turbo", 
    "lat": "8.0931", 
    "lng": "-76.7283", 
    "country": "Colombia", 
    "iso2": "CO", 
    "admin_name": "Antioquia", 
    "capital": "minor", 
    "population": "181000", 
    "population_proper": "181000"
  }, 
  {
    "city": "Yopal", 
    "lat": "5.3306", 
    "lng": "-72.3906", 
    "country": "Colombia", 
    "iso2": "CO", 
    "admin_name": "Casanare", 
    "capital": "admin", 
    "population": "179355", 
    "population_proper": "179355"
  }, 
  {
    "city": "Dosquebradas", 
    "lat": "4.8361", 
    "lng": "-75.6761", 
    "country": "Colombia", 
    "iso2": "CO", 
    "admin_name": "Risaralda", 
    "capital": "minor", 
    "population": "179301", 
    "population_proper": "179301"
  }, 
  {
    "city": "Ríohacha", 
    "lat": "11.5442", 
    "lng": "-72.9069", 
    "country": "Colombia", 
    "iso2": "CO", 
    "admin_name": "La Guajira", 
    "capital": "admin", 
    "population": "167865", 
    "population_proper": "167865"
  }, 
  {
    "city": "Girón", 
    "lat": "7.0731", 
    "lng": "-73.1681", 
    "country": "Colombia", 
    "iso2": "CO", 
    "admin_name": "Santander", 
    "capital": "minor", 
    "population": "160403", 
    "population_proper": "160403"
  }, 
  {
    "city": "Florencia", 
    "lat": "1.6142", 
    "lng": "-75.6117", 
    "country": "Colombia", 
    "iso2": "CO", 
    "admin_name": "Caquetá", 
    "capital": "admin", 
    "population": "143871", 
    "population_proper": "143871"
  }, 
  {
    "city": "Fusagasugá", 
    "lat": "4.3372", 
    "lng": "-74.3644", 
    "country": "Colombia", 
    "iso2": "CO", 
    "admin_name": "Cundinamarca", 
    "capital": "minor", 
    "population": "139805", 
    "population_proper": "139805"
  }, 
  {
    "city": "Cartago", 
    "lat": "4.7500", 
    "lng": "-75.9100", 
    "country": "Colombia", 
    "iso2": "CO", 
    "admin_name": "Valle del Cauca", 
    "capital": "minor", 
    "population": "134827", 
    "population_proper": "111513"
  }, 
  {
    "city": "Pitalito", 
    "lat": "1.8539", 
    "lng": "-76.0514", 
    "country": "Colombia", 
    "iso2": "CO", 
    "admin_name": "Huila", 
    "capital": "minor", 
    "population": "133205", 
    "population_proper": "133205"
  }, 
  {
    "city": "Ciénaga", 
    "lat": "11.0104", 
    "lng": "-74.2500", 
    "country": "Colombia", 
    "iso2": "CO", 
    "admin_name": "Magdalena", 
    "capital": "minor", 
    "population": "131171", 
    "population_proper": "88311"
  }, 
  {
    "city": "Sogamoso", 
    "lat": "5.7158", 
    "lng": "-72.9333", 
    "country": "Colombia", 
    "iso2": "CO", 
    "admin_name": "Boyacá", 
    "capital": "minor", 
    "population": "131105", 
    "population_proper": "131105"
  }, 
  {
    "city": "Quibdó", 
    "lat": "5.6923", 
    "lng": "-76.6582", 
    "country": "Colombia", 
    "iso2": "CO", 
    "admin_name": "Chocó", 
    "capital": "admin", 
    "population": "130825", 
    "population_proper": "130825"
  }, 
  {
    "city": "Girardot", 
    "lat": "4.3036", 
    "lng": "-74.8039", 
    "country": "Colombia", 
    "iso2": "CO", 
    "admin_name": "Cundinamarca", 
    "capital": "minor", 
    "population": "129834", 
    "population_proper": "129834"
  }, 
  {
    "city": "Duitama", 
    "lat": "5.8219", 
    "lng": "-73.0297", 
    "country": "Colombia", 
    "iso2": "CO", 
    "admin_name": "Boyacá", 
    "capital": "minor", 
    "population": "126670", 
    "population_proper": "126670"
  }, 
  {
    "city": "Magangué", 
    "lat": "9.2467", 
    "lng": "-74.7594", 
    "country": "Colombia", 
    "iso2": "CO", 
    "admin_name": "Bolívar", 
    "capital": "minor", 
    "population": "123906", 
    "population_proper": "123906"
  }, 
  {
    "city": "Maicao", 
    "lat": "11.3778", 
    "lng": "-72.2414", 
    "country": "Colombia", 
    "iso2": "CO", 
    "admin_name": "La Guajira", 
    "capital": "minor", 
    "population": "123757", 
    "population_proper": "123757"
  }, 
  {
    "city": "Uribia", 
    "lat": "11.7139", 
    "lng": "-72.2658", 
    "country": "Colombia", 
    "iso2": "CO", 
    "admin_name": "La Guajira", 
    "capital": "minor", 
    "population": "117674", 
    "population_proper": "117674"
  }, 
  {
    "city": "Piedecuesta", 
    "lat": "6.9886", 
    "lng": "-73.0503", 
    "country": "Colombia", 
    "iso2": "CO", 
    "admin_name": "Santander", 
    "capital": "minor", 
    "population": "117364", 
    "population_proper": "117364"
  }, 
  {
    "city": "Facatativá", 
    "lat": "4.8147", 
    "lng": "-74.3553", 
    "country": "Colombia", 
    "iso2": "CO", 
    "admin_name": "Cundinamarca", 
    "capital": "minor", 
    "population": "117133", 
    "population_proper": "117133"
  }, 
  {
    "city": "Guadalajara de Buga", 
    "lat": "3.9036", 
    "lng": "-76.2986", 
    "country": "Colombia", 
    "iso2": "CO", 
    "admin_name": "Valle del Cauca", 
    "capital": "minor", 
    "population": "116893", 
    "population_proper": "116893"
  }, 
  {
    "city": "Madrid", 
    "lat": "4.7306", 
    "lng": "-74.2639", 
    "country": "Colombia", 
    "iso2": "CO", 
    "admin_name": "Cundinamarca", 
    "capital": "minor", 
    "population": "112254", 
    "population_proper": "112254"
  }, 
  {
    "city": "Santander de Quilichao", 
    "lat": "3.0083", 
    "lng": "-76.4839", 
    "country": "Colombia", 
    "iso2": "CO", 
    "admin_name": "Cauca", 
    "capital": "minor", 
    "population": "110535", 
    "population_proper": "110535"
  }, 
  {
    "city": "Aguachica", 
    "lat": "8.3067", 
    "lng": "-73.6153", 
    "country": "Colombia", 
    "iso2": "CO", 
    "admin_name": "Cesar", 
    "capital": "minor", 
    "population": "109621", 
    "population_proper": "109621"
  }, 
  {
    "city": "Ipiales", 
    "lat": "0.8289", 
    "lng": "-77.6406", 
    "country": "Colombia", 
    "iso2": "CO", 
    "admin_name": "Nariño", 
    "capital": "minor", 
    "population": "109116", 
    "population_proper": "109116"
  }, 
  {
    "city": "Chía", 
    "lat": "4.8633", 
    "lng": "-74.0528", 
    "country": "Colombia", 
    "iso2": "CO", 
    "admin_name": "Cundinamarca", 
    "capital": "minor", 
    "population": "97896", 
    "population_proper": "97896"
  }, 
  {
    "city": "Jamundí", 
    "lat": "3.2608", 
    "lng": "-76.5394", 
    "country": "Colombia", 
    "iso2": "CO", 
    "admin_name": "Valle del Cauca", 
    "capital": "minor", 
    "population": "96993", 
    "population_proper": "96993"
  }, 
  {
    "city": "Arauca", 
    "lat": "7.0903", 
    "lng": "-70.7617", 
    "country": "Colombia", 
    "iso2": "CO", 
    "admin_name": "Arauca", 
    "capital": "admin", 
    "population": "96814", 
    "population_proper": "96814"
  }, 
  {
    "city": "Yumbo", 
    "lat": "3.5778", 
    "lng": "-76.4944", 
    "country": "Colombia", 
    "iso2": "CO", 
    "admin_name": "Valle del Cauca", 
    "capital": "minor", 
    "population": "92192", 
    "population_proper": "92192"
  }, 
  {
    "city": "Mosquera", 
    "lat": "4.7078", 
    "lng": "-74.2328", 
    "country": "Colombia", 
    "iso2": "CO", 
    "admin_name": "Cundinamarca", 
    "capital": "minor", 
    "population": "91282", 
    "population_proper": "91282"
  }, 
  {
    "city": "Fundación", 
    "lat": "10.5172", 
    "lng": "-74.1922", 
    "country": "Colombia", 
    "iso2": "CO", 
    "admin_name": "Magdalena", 
    "capital": "minor", 
    "population": "90514", 
    "population_proper": "90514"
  }, 
  {
    "city": "Ocaña", 
    "lat": "8.2461", 
    "lng": "-73.3553", 
    "country": "Colombia", 
    "iso2": "CO", 
    "admin_name": "Norte de Santander", 
    "capital": "minor", 
    "population": "90037", 
    "population_proper": "90037"
  }, 
  {
    "city": "Montelíbano", 
    "lat": "7.9711", 
    "lng": "-75.4181", 
    "country": "Colombia", 
    "iso2": "CO", 
    "admin_name": "Córdoba", 
    "capital": "minor", 
    "population": "88674", 
    "population_proper": "88674"
  }, 
  {
    "city": "Chiquinquirá", 
    "lat": "5.6175", 
    "lng": "-73.8164", 
    "country": "Colombia", 
    "iso2": "CO", 
    "admin_name": "Boyacá", 
    "capital": "minor", 
    "population": "85274", 
    "population_proper": "85274"
  }, 
  {
    "city": "Sabanalarga", 
    "lat": "10.6300", 
    "lng": "-74.9236", 
    "country": "Colombia", 
    "iso2": "CO", 
    "admin_name": "Atlántico", 
    "capital": "minor", 
    "population": "84410", 
    "population_proper": "84410"
  }, 
  {
    "city": "Chigorodó", 
    "lat": "7.6697", 
    "lng": "-76.6814", 
    "country": "Colombia", 
    "iso2": "CO", 
    "admin_name": "Antioquia", 
    "capital": "minor", 
    "population": "84183", 
    "population_proper": "84183"
  }, 
  {
    "city": "Cereté", 
    "lat": "8.8867", 
    "lng": "-75.7911", 
    "country": "Colombia", 
    "iso2": "CO", 
    "admin_name": "Córdoba", 
    "capital": "minor", 
    "population": "83917", 
    "population_proper": "83917"
  }, 
  {
    "city": "Caldas", 
    "lat": "6.0886", 
    "lng": "-75.6361", 
    "country": "Colombia", 
    "iso2": "CO", 
    "admin_name": "Antioquia", 
    "capital": "minor", 
    "population": "81381", 
    "population_proper": "81381"
  }, 
  {
    "city": "Funza", 
    "lat": "4.7175", 
    "lng": "-74.2094", 
    "country": "Colombia", 
    "iso2": "CO", 
    "admin_name": "Cundinamarca", 
    "capital": "minor", 
    "population": "80937", 
    "population_proper": "80937"
  }, 
  {
    "city": "Los Patios", 
    "lat": "7.8342", 
    "lng": "-72.5050", 
    "country": "Colombia", 
    "iso2": "CO", 
    "admin_name": "Norte de Santander", 
    "capital": "minor", 
    "population": "80235", 
    "population_proper": "80235"
  }, 
  {
    "city": "Tierralta", 
    "lat": "8.1728", 
    "lng": "-76.0594", 
    "country": "Colombia", 
    "iso2": "CO", 
    "admin_name": "Córdoba", 
    "capital": "minor", 
    "population": "78770", 
    "population_proper": "78770"
  }, 
  {
    "city": "El Carmen de Bolívar", 
    "lat": "9.7167", 
    "lng": "-75.1167", 
    "country": "Colombia", 
    "iso2": "CO", 
    "admin_name": "Bolívar", 
    "capital": "minor", 
    "population": "78729", 
    "population_proper": "78729"
  }, 
  {
    "city": "La Dorada", 
    "lat": "5.4538", 
    "lng": "-74.6647", 
    "country": "Colombia", 
    "iso2": "CO", 
    "admin_name": "Caldas", 
    "capital": "minor", 
    "population": "78540", 
    "population_proper": "78540"
  }, 
  {
    "city": "Arjona", 
    "lat": "10.2550", 
    "lng": "-75.3447", 
    "country": "Colombia", 
    "iso2": "CO", 
    "admin_name": "Bolívar", 
    "capital": "minor", 
    "population": "78070", 
    "population_proper": "78070"
  }, 
  {
    "city": "Turbaco", 
    "lat": "10.3319", 
    "lng": "-75.4142", 
    "country": "Colombia", 
    "iso2": "CO", 
    "admin_name": "Bolívar", 
    "capital": "minor", 
    "population": "76218", 
    "population_proper": "76218"
  }, 
  {
    "city": "Espinal", 
    "lat": "4.1486", 
    "lng": "-74.8819", 
    "country": "Colombia", 
    "iso2": "CO", 
    "admin_name": "Tolima", 
    "capital": "minor", 
    "population": "75828", 
    "population_proper": "75828"
  }, 
  {
    "city": "Acacías", 
    "lat": "3.9889", 
    "lng": "-73.7647", 
    "country": "Colombia", 
    "iso2": "CO", 
    "admin_name": "Meta", 
    "capital": "minor", 
    "population": "75252", 
    "population_proper": "75252"
  }, 
  {
    "city": "Copacabana", 
    "lat": "6.3486", 
    "lng": "-75.5103", 
    "country": "Colombia", 
    "iso2": "CO", 
    "admin_name": "Antioquia", 
    "capital": "minor", 
    "population": "73574", 
    "population_proper": "73574"
  }, 
  {
    "city": "Santa Rosa de Cabal", 
    "lat": "4.8672", 
    "lng": "-75.6211", 
    "country": "Colombia", 
    "iso2": "CO", 
    "admin_name": "Risaralda", 
    "capital": "minor", 
    "population": "73028", 
    "population_proper": "73028"
  }, 
  {
    "city": "San Vicente del Caguán", 
    "lat": "2.1153", 
    "lng": "-74.7700", 
    "country": "Colombia", 
    "iso2": "CO", 
    "admin_name": "Caquetá", 
    "capital": "minor", 
    "population": "72949", 
    "population_proper": "72949"
  }, 
  {
    "city": "San Andrés", 
    "lat": "12.5847", 
    "lng": "-81.7006", 
    "country": "Colombia", 
    "iso2": "CO", 
    "admin_name": "San Andrés y Providencia", 
    "capital": "admin", 
    "population": "71946", 
    "population_proper": "71946"
  }, 
  {
    "city": "Corozal", 
    "lat": "9.3169", 
    "lng": "-75.2933", 
    "country": "Colombia", 
    "iso2": "CO", 
    "admin_name": "Sucre", 
    "capital": "minor", 
    "population": "70853", 
    "population_proper": "70853"
  }, 
  {
    "city": "Villa del Rosario", 
    "lat": "7.8353", 
    "lng": "-72.4736", 
    "country": "Colombia", 
    "iso2": "CO", 
    "admin_name": "Norte de Santander", 
    "capital": "minor", 
    "population": "69833", 
    "population_proper": "69833"
  }, 
  {
    "city": "Garzón", 
    "lat": "2.1961", 
    "lng": "-75.6292", 
    "country": "Colombia", 
    "iso2": "CO", 
    "admin_name": "Huila", 
    "capital": "minor", 
    "population": "69823", 
    "population_proper": "69823"
  }, 
  {
    "city": "Planeta Rica", 
    "lat": "8.4089", 
    "lng": "-75.5819", 
    "country": "Colombia", 
    "iso2": "CO", 
    "admin_name": "Córdoba", 
    "capital": "minor", 
    "population": "69285", 
    "population_proper": "69285"
  }, 
  {
    "city": "Necoclí", 
    "lat": "8.4258", 
    "lng": "-76.7839", 
    "country": "Colombia", 
    "iso2": "CO", 
    "admin_name": "Antioquia", 
    "capital": "minor", 
    "population": "69090", 
    "population_proper": "69090"
  }, 
  {
    "city": "San José del Guaviare", 
    "lat": "2.5653", 
    "lng": "-72.6386", 
    "country": "Colombia", 
    "iso2": "CO", 
    "admin_name": "Guaviare", 
    "capital": "admin", 
    "population": "68878", 
    "population_proper": "68878"
  }, 
  {
    "city": "Manaure", 
    "lat": "11.7750", 
    "lng": "-72.4444", 
    "country": "Colombia", 
    "iso2": "CO", 
    "admin_name": "La Guajira", 
    "capital": "minor", 
    "population": "67584", 
    "population_proper": "67584"
  }, 
  {
    "city": "Marinilla", 
    "lat": "6.1744", 
    "lng": "-75.3389", 
    "country": "Colombia", 
    "iso2": "CO", 
    "admin_name": "Antioquia", 
    "capital": "minor", 
    "population": "64645", 
    "population_proper": "64645"
  }, 
  {
    "city": "Ciénaga de Oro", 
    "lat": "8.8750", 
    "lng": "-75.6211", 
    "country": "Colombia", 
    "iso2": "CO", 
    "admin_name": "Córdoba", 
    "capital": "minor", 
    "population": "64226", 
    "population_proper": "64226"
  }, 
  {
    "city": "Puerto Asís", 
    "lat": "0.5006", 
    "lng": "-76.4989", 
    "country": "Colombia", 
    "iso2": "CO", 
    "admin_name": "Putumayo", 
    "capital": "minor", 
    "population": "63067", 
    "population_proper": "63067"
  }, 
  {
    "city": "Riosucio", 
    "lat": "5.4208", 
    "lng": "-75.7028", 
    "country": "Colombia", 
    "iso2": "CO", 
    "admin_name": "Caldas", 
    "capital": "minor", 
    "population": "62296", 
    "population_proper": "62296"
  }, 
  {
    "city": "Plato", 
    "lat": "9.7925", 
    "lng": "-74.7825", 
    "country": "Colombia", 
    "iso2": "CO", 
    "admin_name": "Magdalena", 
    "capital": "minor", 
    "population": "61856", 
    "population_proper": "61856"
  }, 
  {
    "city": "Carepa", 
    "lat": "7.7581", 
    "lng": "-76.6553", 
    "country": "Colombia", 
    "iso2": "CO", 
    "admin_name": "Antioquia", 
    "capital": "minor", 
    "population": "61641", 
    "population_proper": "61641"
  }, 
  {
    "city": "Cajicá", 
    "lat": "4.9167", 
    "lng": "-74.0250", 
    "country": "Colombia", 
    "iso2": "CO", 
    "admin_name": "Cundinamarca", 
    "capital": "minor", 
    "population": "61549", 
    "population_proper": "61549"
  }, 
  {
    "city": "Villamaría", 
    "lat": "5.0456", 
    "lng": "-75.5153", 
    "country": "Colombia", 
    "iso2": "CO", 
    "admin_name": "Caldas", 
    "capital": "minor", 
    "population": "60729", 
    "population_proper": "60729"
  }, 
  {
    "city": "San Marcos", 
    "lat": "8.6622", 
    "lng": "-75.1289", 
    "country": "Colombia", 
    "iso2": "CO", 
    "admin_name": "Sucre", 
    "capital": "minor", 
    "population": "59976", 
    "population_proper": "59976"
  }, 
  {
    "city": "Girardota", 
    "lat": "6.3769", 
    "lng": "-75.4461", 
    "country": "Colombia", 
    "iso2": "CO", 
    "admin_name": "Antioquia", 
    "capital": "minor", 
    "population": "59319", 
    "population_proper": "59319"
  }, 
  {
    "city": "Florida", 
    "lat": "3.3217", 
    "lng": "-76.2347", 
    "country": "Colombia", 
    "iso2": "CO", 
    "admin_name": "Valle del Cauca", 
    "capital": "minor", 
    "population": "58988", 
    "population_proper": "58988"
  }, 
  {
    "city": "Pamplona", 
    "lat": "7.3761", 
    "lng": "-72.6483", 
    "country": "Colombia", 
    "iso2": "CO", 
    "admin_name": "Norte de Santander", 
    "capital": "minor", 
    "population": "58975", 
    "population_proper": "58975"
  }, 
  {
    "city": "Pradera", 
    "lat": "3.4189", 
    "lng": "-76.2439", 
    "country": "Colombia", 
    "iso2": "CO", 
    "admin_name": "Valle del Cauca", 
    "capital": "minor", 
    "population": "57990", 
    "population_proper": "57990"
  }, 
  {
    "city": "Orito", 
    "lat": "0.6661", 
    "lng": "-76.8708", 
    "country": "Colombia", 
    "iso2": "CO", 
    "admin_name": "Putumayo", 
    "capital": "minor", 
    "population": "57774", 
    "population_proper": "57774"
  }, 
  {
    "city": "Puerto Boyacá", 
    "lat": "5.9761", 
    "lng": "-74.5875", 
    "country": "Colombia", 
    "iso2": "CO", 
    "admin_name": "Boyacá", 
    "capital": "minor", 
    "population": "56930", 
    "population_proper": "56930"
  }, 
  {
    "city": "El Banco", 
    "lat": "9.0008", 
    "lng": "-73.9744", 
    "country": "Colombia", 
    "iso2": "CO", 
    "admin_name": "Magdalena", 
    "capital": "minor", 
    "population": "55530", 
    "population_proper": "55530"
  }, 
  {
    "city": "San Gil", 
    "lat": "6.5550", 
    "lng": "-73.1336", 
    "country": "Colombia", 
    "iso2": "CO", 
    "admin_name": "Santander", 
    "capital": "minor", 
    "population": "54687", 
    "population_proper": "54687"
  }, 
  {
    "city": "Sabaneta", 
    "lat": "6.1508", 
    "lng": "-75.6150", 
    "country": "Colombia", 
    "iso2": "CO", 
    "admin_name": "Antioquia", 
    "capital": "minor", 
    "population": "54573", 
    "population_proper": "54573"
  }, 
  {
    "city": "Valle del Guamuez", 
    "lat": "0.4253", 
    "lng": "-76.9053", 
    "country": "Colombia", 
    "iso2": "CO", 
    "admin_name": "Putumayo", 
    "capital": "", 
    "population": "54237", 
    "population_proper": "54237"
  }, 
  {
    "city": "Puerto Libertador", 
    "lat": "7.8881", 
    "lng": "-75.6717", 
    "country": "Colombia", 
    "iso2": "CO", 
    "admin_name": "Córdoba", 
    "capital": "minor", 
    "population": "53990", 
    "population_proper": "53990"
  }, 
  {
    "city": "Tame", 
    "lat": "6.4583", 
    "lng": "-71.7447", 
    "country": "Colombia", 
    "iso2": "CO", 
    "admin_name": "Arauca", 
    "capital": "minor", 
    "population": "53266", 
    "population_proper": "53266"
  }, 
  {
    "city": "Barbosa", 
    "lat": "6.4375", 
    "lng": "-75.3306", 
    "country": "Colombia", 
    "iso2": "CO", 
    "admin_name": "Antioquia", 
    "capital": "minor", 
    "population": "53167", 
    "population_proper": "53167"
  }, 
  {
    "city": "Lorica", 
    "lat": "9.2419", 
    "lng": "-75.8160", 
    "country": "Colombia", 
    "iso2": "CO", 
    "admin_name": "Córdoba", 
    "capital": "minor", 
    "population": "52771", 
    "population_proper": "40605"
  }, 
  {
    "city": "San Onofre", 
    "lat": "9.7372", 
    "lng": "-75.5256", 
    "country": "Colombia", 
    "iso2": "CO", 
    "admin_name": "Sucre", 
    "capital": "minor", 
    "population": "51991", 
    "population_proper": "51991"
  }, 
  {
    "city": "Guarne", 
    "lat": "6.2792", 
    "lng": "-75.4419", 
    "country": "Colombia", 
    "iso2": "CO", 
    "admin_name": "Antioquia", 
    "capital": "minor", 
    "population": "51265", 
    "population_proper": "51265"
  }, 
  {
    "city": "El Bagre", 
    "lat": "7.6047", 
    "lng": "-74.8086", 
    "country": "Colombia", 
    "iso2": "CO", 
    "admin_name": "Antioquia", 
    "capital": "minor", 
    "population": "50863", 
    "population_proper": "50863"
  }, 
  {
    "city": "Chinú", 
    "lat": "9.1097", 
    "lng": "-75.3981", 
    "country": "Colombia", 
    "iso2": "CO", 
    "admin_name": "Córdoba", 
    "capital": "minor", 
    "population": "50313", 
    "population_proper": "50313"
  }, 
  {
    "city": "Baranoa", 
    "lat": "10.7956", 
    "lng": "-74.9194", 
    "country": "Colombia", 
    "iso2": "CO", 
    "admin_name": "Atlántico", 
    "capital": "minor", 
    "population": "50261", 
    "population_proper": "50261"
  }, 
  {
    "city": "Puerto Berrío", 
    "lat": "6.4906", 
    "lng": "-74.4047", 
    "country": "Colombia", 
    "iso2": "CO", 
    "admin_name": "Antioquia", 
    "capital": "minor", 
    "population": "50232", 
    "population_proper": "50232"
  }, 
  {
    "city": "Cimitarra", 
    "lat": "6.3133", 
    "lng": "-73.9500", 
    "country": "Colombia", 
    "iso2": "CO", 
    "admin_name": "Santander", 
    "capital": "minor", 
    "population": "49593", 
    "population_proper": "49593"
  }, 
  {
    "city": "María la Baja", 
    "lat": "9.9811", 
    "lng": "-75.2986", 
    "country": "Colombia", 
    "iso2": "CO", 
    "admin_name": "Bolívar", 
    "capital": "minor", 
    "population": "49462", 
    "population_proper": "49462"
  }, 
  {
    "city": "Agustín Codazzi", 
    "lat": "10.0367", 
    "lng": "-73.2369", 
    "country": "Colombia", 
    "iso2": "CO", 
    "admin_name": "Cesar", 
    "capital": "minor", 
    "population": "49233", 
    "population_proper": "49233"
  }, 
  {
    "city": "Samaniego", 
    "lat": "1.3364", 
    "lng": "-77.5925", 
    "country": "Colombia", 
    "iso2": "CO", 
    "admin_name": "Nariño", 
    "capital": "minor", 
    "population": "49178", 
    "population_proper": "49178"
  }, 
  {
    "city": "Carmen de Viboral", 
    "lat": "6.0819", 
    "lng": "-75.3342", 
    "country": "Colombia", 
    "iso2": "CO", 
    "admin_name": "Antioquia", 
    "capital": "minor", 
    "population": "49076", 
    "population_proper": "49076"
  }, 
  {
    "city": "Yarumal", 
    "lat": "6.9633", 
    "lng": "-75.4172", 
    "country": "Colombia", 
    "iso2": "CO", 
    "admin_name": "Antioquia", 
    "capital": "minor", 
    "population": "48556", 
    "population_proper": "48556"
  }, 
  {
    "city": "La Vega", 
    "lat": "2.0008", 
    "lng": "-76.7778", 
    "country": "Colombia", 
    "iso2": "CO", 
    "admin_name": "Cauca", 
    "capital": "minor", 
    "population": "47417", 
    "population_proper": "47417"
  }, 
  {
    "city": "Chaparral", 
    "lat": "3.7236", 
    "lng": "-75.4847", 
    "country": "Colombia", 
    "iso2": "CO", 
    "admin_name": "Tolima", 
    "capital": "minor", 
    "population": "47397", 
    "population_proper": "47397"
  }, 
  {
    "city": "Andes", 
    "lat": "5.6556", 
    "lng": "-75.8803", 
    "country": "Colombia", 
    "iso2": "CO", 
    "admin_name": "Antioquia", 
    "capital": "minor", 
    "population": "47384", 
    "population_proper": "47384"
  }, 
  {
    "city": "San Andrés de Sotavento", 
    "lat": "9.1453", 
    "lng": "-75.5086", 
    "country": "Colombia", 
    "iso2": "CO", 
    "admin_name": "Córdoba", 
    "capital": "minor", 
    "population": "47282", 
    "population_proper": "47282"
  }, 
  {
    "city": "Ayapel", 
    "lat": "8.3125", 
    "lng": "-75.1450", 
    "country": "Colombia", 
    "iso2": "CO", 
    "admin_name": "Córdoba", 
    "capital": "minor", 
    "population": "47247", 
    "population_proper": "47247"
  }, 
  {
    "city": "Urrao", 
    "lat": "6.3156", 
    "lng": "-76.1342", 
    "country": "Colombia", 
    "iso2": "CO", 
    "admin_name": "Antioquia", 
    "capital": "minor", 
    "population": "47128", 
    "population_proper": "47128"
  }, 
  {
    "city": "Zarzal", 
    "lat": "4.3942", 
    "lng": "-76.0703", 
    "country": "Colombia", 
    "iso2": "CO", 
    "admin_name": "Valle del Cauca", 
    "capital": "minor", 
    "population": "47062", 
    "population_proper": "47062"
  }, 
  {
    "city": "Valencia", 
    "lat": "8.2592", 
    "lng": "-76.1469", 
    "country": "Colombia", 
    "iso2": "CO", 
    "admin_name": "Córdoba", 
    "capital": "minor", 
    "population": "46897", 
    "population_proper": "46897"
  }, 
  {
    "city": "Roldanillo", 
    "lat": "4.4136", 
    "lng": "-76.1547", 
    "country": "Colombia", 
    "iso2": "CO", 
    "admin_name": "Valle del Cauca", 
    "capital": "minor", 
    "population": "46788", 
    "population_proper": "46788"
  }, 
  {
    "city": "Puerto Tejada", 
    "lat": "3.2300", 
    "lng": "-76.4175", 
    "country": "Colombia", 
    "iso2": "CO", 
    "admin_name": "Cauca", 
    "capital": "minor", 
    "population": "46166", 
    "population_proper": "46166"
  }, 
  {
    "city": "Santa Rosa del Sur", 
    "lat": "7.9633", 
    "lng": "-74.0533", 
    "country": "Colombia", 
    "iso2": "CO", 
    "admin_name": "Bolívar", 
    "capital": "minor", 
    "population": "46017", 
    "population_proper": "46017"
  }, 
  {
    "city": "San Pelayo", 
    "lat": "8.9578", 
    "lng": "-75.8375", 
    "country": "Colombia", 
    "iso2": "CO", 
    "admin_name": "Córdoba", 
    "capital": "minor", 
    "population": "45396", 
    "population_proper": "45396"
  }, 
  {
    "city": "Arboletes", 
    "lat": "8.8511", 
    "lng": "-76.4272", 
    "country": "Colombia", 
    "iso2": "CO", 
    "admin_name": "Antioquia", 
    "capital": "minor", 
    "population": "44560", 
    "population_proper": "44560"
  }, 
  {
    "city": "Villeta", 
    "lat": "5.0128", 
    "lng": "-74.4731", 
    "country": "Colombia", 
    "iso2": "CO", 
    "admin_name": "Cundinamarca", 
    "capital": "minor", 
    "population": "43574", 
    "population_proper": "43574"
  }, 
  {
    "city": "Aguazul", 
    "lat": "5.1689", 
    "lng": "-72.5467", 
    "country": "Colombia", 
    "iso2": "CO", 
    "admin_name": "Casanare", 
    "capital": "minor", 
    "population": "43183", 
    "population_proper": "43183"
  }, 
  {
    "city": "Cumaribo", 
    "lat": "4.4461", 
    "lng": "-69.7956", 
    "country": "Colombia", 
    "iso2": "CO", 
    "admin_name": "Vichada", 
    "capital": "minor", 
    "population": "43138", 
    "population_proper": "43138"
  }, 
  {
    "city": "Miranda", 
    "lat": "3.2503", 
    "lng": "-76.2286", 
    "country": "Colombia", 
    "iso2": "CO", 
    "admin_name": "Cauca", 
    "capital": "minor", 
    "population": "42639", 
    "population_proper": "42639"
  }, 
  {
    "city": "El Charco", 
    "lat": "2.4775", 
    "lng": "-78.1111", 
    "country": "Colombia", 
    "iso2": "CO", 
    "admin_name": "Nariño", 
    "capital": "minor", 
    "population": "42525", 
    "population_proper": "42525"
  }, 
  {
    "city": "Cáceres", 
    "lat": "7.5794", 
    "lng": "-75.3503", 
    "country": "Colombia", 
    "iso2": "CO", 
    "admin_name": "Antioquia", 
    "capital": "minor", 
    "population": "42112", 
    "population_proper": "42112"
  }, 
  {
    "city": "Montenegro", 
    "lat": "4.5653", 
    "lng": "-75.7511", 
    "country": "Colombia", 
    "iso2": "CO", 
    "admin_name": "Quindío", 
    "capital": "minor", 
    "population": "41857", 
    "population_proper": "41857"
  }, 
  {
    "city": "Pueblo Nuevo", 
    "lat": "8.5050", 
    "lng": "-75.5075", 
    "country": "Colombia", 
    "iso2": "CO", 
    "admin_name": "Córdoba", 
    "capital": "minor", 
    "population": "41684", 
    "population_proper": "41684"
  }, 
  {
    "city": "Tuchín", 
    "lat": "9.1858", 
    "lng": "-75.5553", 
    "country": "Colombia", 
    "iso2": "CO", 
    "admin_name": "Córdoba", 
    "capital": "minor", 
    "population": "41345", 
    "population_proper": "41345"
  }, 
  {
    "city": "Arauquita", 
    "lat": "7.0261", 
    "lng": "-71.4272", 
    "country": "Colombia", 
    "iso2": "CO", 
    "admin_name": "Arauca", 
    "capital": "minor", 
    "population": "41309", 
    "population_proper": "41309"
  }, 
  {
    "city": "Guaduas", 
    "lat": "5.0694", 
    "lng": "-74.5981", 
    "country": "Colombia", 
    "iso2": "CO", 
    "admin_name": "Cundinamarca", 
    "capital": "minor", 
    "population": "41142", 
    "population_proper": "41142"
  }, 
  {
    "city": "Pie de Pató", 
    "lat": "5.5153", 
    "lng": "-76.9747", 
    "country": "Colombia", 
    "iso2": "CO", 
    "admin_name": "Chocó", 
    "capital": "minor", 
    "population": "40733", 
    "population_proper": "40733"
  }, 
  {
    "city": "Cumbal", 
    "lat": "0.9078", 
    "lng": "-77.7908", 
    "country": "Colombia", 
    "iso2": "CO", 
    "admin_name": "Nariño", 
    "capital": "minor", 
    "population": "40492", 
    "population_proper": "40492"
  }, 
  {
    "city": "Aracataca", 
    "lat": "10.5911", 
    "lng": "-74.1850", 
    "country": "Colombia", 
    "iso2": "CO", 
    "admin_name": "Magdalena", 
    "capital": "minor", 
    "population": "40400", 
    "population_proper": "40400"
  }, 
  {
    "city": "La Unión", 
    "lat": "4.5331", 
    "lng": "-76.1006", 
    "country": "Colombia", 
    "iso2": "CO", 
    "admin_name": "Valle del Cauca", 
    "capital": "minor", 
    "population": "40339", 
    "population_proper": "40339"
  }, 
  {
    "city": "Túquerres", 
    "lat": "1.0872", 
    "lng": "-77.6189", 
    "country": "Colombia", 
    "iso2": "CO", 
    "admin_name": "Nariño", 
    "capital": "minor", 
    "population": "40159", 
    "population_proper": "40159"
  }, 
  {
    "city": "Acevedo", 
    "lat": "1.8047", 
    "lng": "-75.8897", 
    "country": "Colombia", 
    "iso2": "CO", 
    "admin_name": "Huila", 
    "capital": "minor", 
    "population": "39877", 
    "population_proper": "39877"
  }, 
  {
    "city": "Bosconia", 
    "lat": "9.9761", 
    "lng": "-73.8903", 
    "country": "Colombia", 
    "iso2": "CO", 
    "admin_name": "Cesar", 
    "capital": "minor", 
    "population": "39716", 
    "population_proper": "39716"
  }, 
  {
    "city": "Líbano", 
    "lat": "4.9206", 
    "lng": "-75.0611", 
    "country": "Colombia", 
    "iso2": "CO", 
    "admin_name": "Tolima", 
    "capital": "minor", 
    "population": "39665", 
    "population_proper": "39665"
  }, 
  {
    "city": "Villa de San Diego de Ubaté", 
    "lat": "5.3072", 
    "lng": "-73.8144", 
    "country": "Colombia", 
    "iso2": "CO", 
    "admin_name": "Cundinamarca", 
    "capital": "minor", 
    "population": "39568", 
    "population_proper": "39568"
  }, 
  {
    "city": "San Juan del Cesar", 
    "lat": "10.7708", 
    "lng": "-73.0031", 
    "country": "Colombia", 
    "iso2": "CO", 
    "admin_name": "La Guajira", 
    "capital": "minor", 
    "population": "39472", 
    "population_proper": "39472"
  }, 
  {
    "city": "Tarazá", 
    "lat": "7.5839", 
    "lng": "-75.4003", 
    "country": "Colombia", 
    "iso2": "CO", 
    "admin_name": "Antioquia", 
    "capital": "minor", 
    "population": "39257", 
    "population_proper": "39257"
  }, 
  {
    "city": "Cajibío", 
    "lat": "2.6233", 
    "lng": "-76.5731", 
    "country": "Colombia", 
    "iso2": "CO", 
    "admin_name": "Cauca", 
    "capital": "minor", 
    "population": "38703", 
    "population_proper": "38703"
  }, 
  {
    "city": "Segovia", 
    "lat": "7.0781", 
    "lng": "-74.7017", 
    "country": "Colombia", 
    "iso2": "CO", 
    "admin_name": "Antioquia", 
    "capital": "minor", 
    "population": "38661", 
    "population_proper": "38661"
  }, 
  {
    "city": "Sibaté", 
    "lat": "4.4908", 
    "lng": "-74.2594", 
    "country": "Colombia", 
    "iso2": "CO", 
    "admin_name": "Cundinamarca", 
    "capital": "minor", 
    "population": "38412", 
    "population_proper": "38412"
  }, 
  {
    "city": "Sampués", 
    "lat": "9.1847", 
    "lng": "-75.3786", 
    "country": "Colombia", 
    "iso2": "CO", 
    "admin_name": "Sucre", 
    "capital": "minor", 
    "population": "37925", 
    "population_proper": "37925"
  }, 
  {
    "city": "Dibulla", 
    "lat": "11.2725", 
    "lng": "-73.3089", 
    "country": "Colombia", 
    "iso2": "CO", 
    "admin_name": "La Guajira", 
    "capital": "minor", 
    "population": "37854", 
    "population_proper": "37854"
  }, 
  {
    "city": "El Bordo", 
    "lat": "2.1142", 
    "lng": "-76.9831", 
    "country": "Colombia", 
    "iso2": "CO", 
    "admin_name": "Cauca", 
    "capital": "minor", 
    "population": "37504", 
    "population_proper": "37504"
  }, 
  {
    "city": "Santa Rosa de Osos", 
    "lat": "6.6472", 
    "lng": "-75.4606", 
    "country": "Colombia", 
    "iso2": "CO", 
    "admin_name": "Antioquia", 
    "capital": "minor", 
    "population": "37435", 
    "population_proper": "37435"
  }, 
  {
    "city": "Tibú", 
    "lat": "8.6400", 
    "lng": "-72.7381", 
    "country": "Colombia", 
    "iso2": "CO", 
    "admin_name": "Norte de Santander", 
    "capital": "minor", 
    "population": "37286", 
    "population_proper": "37286"
  }, 
  {
    "city": "Melgar", 
    "lat": "4.2039", 
    "lng": "-74.6428", 
    "country": "Colombia", 
    "iso2": "CO", 
    "admin_name": "Tolima", 
    "capital": "minor", 
    "population": "37224", 
    "population_proper": "37224"
  }, 
  {
    "city": "Dagua", 
    "lat": "3.6575", 
    "lng": "-76.6917", 
    "country": "Colombia", 
    "iso2": "CO", 
    "admin_name": "Valle del Cauca", 
    "capital": "minor", 
    "population": "36891", 
    "population_proper": "36891"
  }, 
  {
    "city": "La Macarena", 
    "lat": "2.1828", 
    "lng": "-73.7847", 
    "country": "Colombia", 
    "iso2": "CO", 
    "admin_name": "Meta", 
    "capital": "minor", 
    "population": "36781", 
    "population_proper": "36781"
  }, 
  {
    "city": "Belalcázar", 
    "lat": "2.6469", 
    "lng": "-75.9717", 
    "country": "Colombia", 
    "iso2": "CO", 
    "admin_name": "Cauca", 
    "capital": "minor", 
    "population": "36628", 
    "population_proper": "36628"
  }, 
  {
    "city": "Sonsón", 
    "lat": "5.7094", 
    "lng": "-75.3106", 
    "country": "Colombia", 
    "iso2": "CO", 
    "admin_name": "Antioquia", 
    "capital": "minor", 
    "population": "36445", 
    "population_proper": "36445"
  }, 
  {
    "city": "San Pablo", 
    "lat": "7.4764", 
    "lng": "-73.9231", 
    "country": "Colombia", 
    "iso2": "CO", 
    "admin_name": "Bolívar", 
    "capital": "minor", 
    "population": "36341", 
    "population_proper": "36341"
  }, 
  {
    "city": "San Bernardo del Viento", 
    "lat": "9.3550", 
    "lng": "-75.9544", 
    "country": "Colombia", 
    "iso2": "CO", 
    "admin_name": "Córdoba", 
    "capital": "minor", 
    "population": "36200", 
    "population_proper": "36200"
  }, 
  {
    "city": "Santiago de Tolú", 
    "lat": "9.5250", 
    "lng": "-75.5817", 
    "country": "Colombia", 
    "iso2": "CO", 
    "admin_name": "Sucre", 
    "capital": "minor", 
    "population": "35670", 
    "population_proper": "35670"
  }, 
  {
    "city": "Guacarí", 
    "lat": "3.7647", 
    "lng": "-76.3322", 
    "country": "Colombia", 
    "iso2": "CO", 
    "admin_name": "Valle del Cauca", 
    "capital": "minor", 
    "population": "35662", 
    "population_proper": "35662"
  }, 
  {
    "city": "Timbío", 
    "lat": "2.3528", 
    "lng": "-76.6819", 
    "country": "Colombia", 
    "iso2": "CO", 
    "admin_name": "Cauca", 
    "capital": "minor", 
    "population": "35564", 
    "population_proper": "35564"
  }, 
  {
    "city": "Gigante", 
    "lat": "2.3867", 
    "lng": "-75.5461", 
    "country": "Colombia", 
    "iso2": "CO", 
    "admin_name": "Huila", 
    "capital": "minor", 
    "population": "35498", 
    "population_proper": "35498"
  }, 
  {
    "city": "Cartagena del Chairá", 
    "lat": "1.3361", 
    "lng": "-74.8467", 
    "country": "Colombia", 
    "iso2": "CO", 
    "admin_name": "Caquetá", 
    "capital": "minor", 
    "population": "35473", 
    "population_proper": "35473"
  }, 
  {
    "city": "Tocancipá", 
    "lat": "4.9661", 
    "lng": "-73.9111", 
    "country": "Colombia", 
    "iso2": "CO", 
    "admin_name": "Cundinamarca", 
    "capital": "minor", 
    "population": "35439", 
    "population_proper": "35439"
  }, 
  {
    "city": "Yarumal", 
    "lat": "7.0306", 
    "lng": "-75.5905", 
    "country": "Colombia", 
    "iso2": "CO", 
    "admin_name": "Antioquia", 
    "capital": "", 
    "population": "35315", 
    "population_proper": "35315"
  }, 
  {
    "city": "Quimbaya", 
    "lat": "4.6239", 
    "lng": "-75.7631", 
    "country": "Colombia", 
    "iso2": "CO", 
    "admin_name": "Quindío", 
    "capital": "minor", 
    "population": "35276", 
    "population_proper": "35276"
  }, 
  {
    "city": "Fonseca", 
    "lat": "10.8858", 
    "lng": "-72.8481", 
    "country": "Colombia", 
    "iso2": "CO", 
    "admin_name": "La Guajira", 
    "capital": "minor", 
    "population": "35205", 
    "population_proper": "35205"
  }, 
  {
    "city": "San Vicente de Chucurí", 
    "lat": "6.8819", 
    "lng": "-73.4119", 
    "country": "Colombia", 
    "iso2": "CO", 
    "admin_name": "Santander", 
    "capital": "minor", 
    "population": "35121", 
    "population_proper": "35121"
  }, 
  {
    "city": "Puerto López", 
    "lat": "4.0897", 
    "lng": "-72.9619", 
    "country": "Colombia", 
    "iso2": "CO", 
    "admin_name": "Meta", 
    "capital": "minor", 
    "population": "35097", 
    "population_proper": "35097"
  }, 
  {
    "city": "San Luis de Sincé", 
    "lat": "9.2447", 
    "lng": "-75.1458", 
    "country": "Colombia", 
    "iso2": "CO", 
    "admin_name": "Sucre", 
    "capital": "minor", 
    "population": "35022", 
    "population_proper": "35022"
  }, 
  {
    "city": "Campoalegre", 
    "lat": "2.6867", 
    "lng": "-75.3256", 
    "country": "Colombia", 
    "iso2": "CO", 
    "admin_name": "Huila", 
    "capital": "minor", 
    "population": "34923", 
    "population_proper": "34923"
  }, 
  {
    "city": "Sabanagrande", 
    "lat": "10.7903", 
    "lng": "-74.7556", 
    "country": "Colombia", 
    "iso2": "CO", 
    "admin_name": "Atlántico", 
    "capital": "minor", 
    "population": "34369", 
    "population_proper": "34369"
  }, 
  {
    "city": "Caldono", 
    "lat": "2.7969", 
    "lng": "-76.4828", 
    "country": "Colombia", 
    "iso2": "CO", 
    "admin_name": "Cauca", 
    "capital": "minor", 
    "population": "34132", 
    "population_proper": "34132"
  }, 
  {
    "city": "San Agustín", 
    "lat": "1.8792", 
    "lng": "-76.2683", 
    "country": "Colombia", 
    "iso2": "CO", 
    "admin_name": "Huila", 
    "capital": "minor", 
    "population": "34120", 
    "population_proper": "34120"
  }, 
  {
    "city": "San Juan Nepomuceno", 
    "lat": "9.9522", 
    "lng": "-75.0811", 
    "country": "Colombia", 
    "iso2": "CO", 
    "admin_name": "Bolívar", 
    "capital": "minor", 
    "population": "34012", 
    "population_proper": "34012"
  }, 
  {
    "city": "Majagual", 
    "lat": "8.5408", 
    "lng": "-74.6297", 
    "country": "Colombia", 
    "iso2": "CO", 
    "admin_name": "Sucre", 
    "capital": "minor", 
    "population": "34010", 
    "population_proper": "34010"
  }, 
  {
    "city": "Quinchía", 
    "lat": "5.3394", 
    "lng": "-75.7294", 
    "country": "Colombia", 
    "iso2": "CO", 
    "admin_name": "Risaralda", 
    "capital": "minor", 
    "population": "34005", 
    "population_proper": "34005"
  }, 
  {
    "city": "Puerto Rico", 
    "lat": "1.9075", 
    "lng": "-75.1583", 
    "country": "Colombia", 
    "iso2": "CO", 
    "admin_name": "Caquetá", 
    "capital": "minor", 
    "population": "33701", 
    "population_proper": "33701"
  }, 
  {
    "city": "San Antero", 
    "lat": "9.3775", 
    "lng": "-75.7603", 
    "country": "Colombia", 
    "iso2": "CO", 
    "admin_name": "Córdoba", 
    "capital": "minor", 
    "population": "33662", 
    "population_proper": "33662"
  }, 
  {
    "city": "Corinto", 
    "lat": "3.1739", 
    "lng": "-76.2594", 
    "country": "Colombia", 
    "iso2": "CO", 
    "admin_name": "Cauca", 
    "capital": "minor", 
    "population": "33489", 
    "population_proper": "33489"
  }, 
  {
    "city": "Pivijay", 
    "lat": "10.4608", 
    "lng": "-74.6153", 
    "country": "Colombia", 
    "iso2": "CO", 
    "admin_name": "Magdalena", 
    "capital": "minor", 
    "population": "33225", 
    "population_proper": "33225"
  }, 
  {
    "city": "Puebloviejo", 
    "lat": "10.9942", 
    "lng": "-74.2833", 
    "country": "Colombia", 
    "iso2": "CO", 
    "admin_name": "Magdalena", 
    "capital": "minor", 
    "population": "33030", 
    "population_proper": "33030"
  }, 
  {
    "city": "Bocas de Satinga", 
    "lat": "2.3469", 
    "lng": "-78.3256", 
    "country": "Colombia", 
    "iso2": "CO", 
    "admin_name": "Nariño", 
    "capital": "minor", 
    "population": "32759", 
    "population_proper": "32759"
  }, 
  {
    "city": "Puerto Escondido", 
    "lat": "9.0192", 
    "lng": "-76.2614", 
    "country": "Colombia", 
    "iso2": "CO", 
    "admin_name": "Córdoba", 
    "capital": "minor", 
    "population": "32745", 
    "population_proper": "32745"
  }, 
  {
    "city": "Silvia", 
    "lat": "2.6108", 
    "lng": "-76.3789", 
    "country": "Colombia", 
    "iso2": "CO", 
    "admin_name": "Cauca", 
    "capital": "minor", 
    "population": "32692", 
    "population_proper": "32692"
  }, 
  {
    "city": "El Difícil", 
    "lat": "9.8469", 
    "lng": "-74.2367", 
    "country": "Colombia", 
    "iso2": "CO", 
    "admin_name": "Magdalena", 
    "capital": "minor", 
    "population": "32637", 
    "population_proper": "32637"
  }, 
  {
    "city": "Inzá", 
    "lat": "2.5503", 
    "lng": "-76.0636", 
    "country": "Colombia", 
    "iso2": "CO", 
    "admin_name": "Cauca", 
    "capital": "minor", 
    "population": "32582", 
    "population_proper": "32582"
  }, 
  {
    "city": "Leticia", 
    "lat": "-4.2150", 
    "lng": "-69.9411", 
    "country": "Colombia", 
    "iso2": "CO", 
    "admin_name": "Amazonas", 
    "capital": "admin", 
    "population": "32450", 
    "population_proper": "32450"
  }, 
  {
    "city": "La Virginia", 
    "lat": "4.8967", 
    "lng": "-75.8839", 
    "country": "Colombia", 
    "iso2": "CO", 
    "admin_name": "Risaralda", 
    "capital": "minor", 
    "population": "32330", 
    "population_proper": "32330"
  }, 
  {
    "city": "San Pedro de Urabá", 
    "lat": "8.2750", 
    "lng": "-76.3769", 
    "country": "Colombia", 
    "iso2": "CO", 
    "admin_name": "Antioquia", 
    "capital": "minor", 
    "population": "32328", 
    "population_proper": "32328"
  }, 
  {
    "city": "Remedios", 
    "lat": "7.0275", 
    "lng": "-74.6939", 
    "country": "Colombia", 
    "iso2": "CO", 
    "admin_name": "Antioquia", 
    "capital": "minor", 
    "population": "32057", 
    "population_proper": "32057"
  }, 
  {
    "city": "Paipa", 
    "lat": "5.7800", 
    "lng": "-73.1175", 
    "country": "Colombia", 
    "iso2": "CO", 
    "admin_name": "Boyacá", 
    "capital": "minor", 
    "population": "31868", 
    "population_proper": "31868"
  }, 
  {
    "city": "Guachavés", 
    "lat": "1.2219", 
    "lng": "-77.6772", 
    "country": "Colombia", 
    "iso2": "CO", 
    "admin_name": "Nariño", 
    "capital": "minor", 
    "population": "31856", 
    "population_proper": "31856"
  }, 
  {
    "city": "Sitionuevo", 
    "lat": "10.7758", 
    "lng": "-74.7203", 
    "country": "Colombia", 
    "iso2": "CO", 
    "admin_name": "Magdalena", 
    "capital": "minor", 
    "population": "31706", 
    "population_proper": "31706"
  }, 
  {
    "city": "Puerto Wilches", 
    "lat": "7.3483", 
    "lng": "-73.8983", 
    "country": "Colombia", 
    "iso2": "CO", 
    "admin_name": "Santander", 
    "capital": "minor", 
    "population": "31509", 
    "population_proper": "31509"
  }, 
  {
    "city": "Neira", 
    "lat": "5.1664", 
    "lng": "-75.5189", 
    "country": "Colombia", 
    "iso2": "CO", 
    "admin_name": "Caldas", 
    "capital": "minor", 
    "population": "31399", 
    "population_proper": "31399"
  }, 
  {
    "city": "Guamo", 
    "lat": "4.0281", 
    "lng": "-74.9700", 
    "country": "Colombia", 
    "iso2": "CO", 
    "admin_name": "Tolima", 
    "capital": "minor", 
    "population": "31350", 
    "population_proper": "31350"
  }, 
  {
    "city": "Circasia", 
    "lat": "4.6192", 
    "lng": "-75.6347", 
    "country": "Colombia", 
    "iso2": "CO", 
    "admin_name": "Quindío", 
    "capital": "minor", 
    "population": "30914", 
    "population_proper": "30914"
  }, 
  {
    "city": "Amagá", 
    "lat": "6.0383", 
    "lng": "-75.7028", 
    "country": "Colombia", 
    "iso2": "CO", 
    "admin_name": "Antioquia", 
    "capital": "minor", 
    "population": "30376", 
    "population_proper": "30376"
  }, 
  {
    "city": "Chimichagua", 
    "lat": "9.2578", 
    "lng": "-73.8133", 
    "country": "Colombia", 
    "iso2": "CO", 
    "admin_name": "Cesar", 
    "capital": "minor", 
    "population": "30303", 
    "population_proper": "30303"
  }, 
  {
    "city": "Planadas", 
    "lat": "3.1964", 
    "lng": "-75.6444", 
    "country": "Colombia", 
    "iso2": "CO", 
    "admin_name": "Tolima", 
    "capital": "minor", 
    "population": "30117", 
    "population_proper": "30117"
  }, 
  {
    "city": "Fresno", 
    "lat": "5.1536", 
    "lng": "-75.0369", 
    "country": "Colombia", 
    "iso2": "CO", 
    "admin_name": "Tolima", 
    "capital": "minor", 
    "population": "29794", 
    "population_proper": "29794"
  }, 
  {
    "city": "Purificación", 
    "lat": "3.8567", 
    "lng": "-74.9325", 
    "country": "Colombia", 
    "iso2": "CO", 
    "admin_name": "Tolima", 
    "capital": "minor", 
    "population": "29777", 
    "population_proper": "29777"
  }, 
  {
    "city": "Tabio", 
    "lat": "4.9158", 
    "lng": "-74.0983", 
    "country": "Colombia", 
    "iso2": "CO", 
    "admin_name": "Cundinamarca", 
    "capital": "minor", 
    "population": "29731", 
    "population_proper": "29731"
  }, 
  {
    "city": "Barbosa", 
    "lat": "5.9331", 
    "lng": "-73.6147", 
    "country": "Colombia", 
    "iso2": "CO", 
    "admin_name": "Santander", 
    "capital": "minor", 
    "population": "29581", 
    "population_proper": "29581"
  }, 
  {
    "city": "Flandes", 
    "lat": "4.2844", 
    "lng": "-74.8142", 
    "country": "Colombia", 
    "iso2": "CO", 
    "admin_name": "Tolima", 
    "capital": "minor", 
    "population": "29478", 
    "population_proper": "29478"
  }, 
  {
    "city": "Aipe", 
    "lat": "3.2219", 
    "lng": "-75.2375", 
    "country": "Colombia", 
    "iso2": "CO", 
    "admin_name": "Huila", 
    "capital": "minor", 
    "population": "29177", 
    "population_proper": "29177"
  }, 
  {
    "city": "Sopó", 
    "lat": "4.9081", 
    "lng": "-73.9403", 
    "country": "Colombia", 
    "iso2": "CO", 
    "admin_name": "Cundinamarca", 
    "capital": "minor", 
    "population": "29120", 
    "population_proper": "29120"
  }, 
  {
    "city": "Moñitos", 
    "lat": "9.2461", 
    "lng": "-76.1286", 
    "country": "Colombia", 
    "iso2": "CO", 
    "admin_name": "Córdoba", 
    "capital": "minor", 
    "population": "29117", 
    "population_proper": "29117"
  }, 
  {
    "city": "Riosucio", 
    "lat": "7.4386", 
    "lng": "-77.1133", 
    "country": "Colombia", 
    "iso2": "CO", 
    "admin_name": "Chocó", 
    "capital": "minor", 
    "population": "29036", 
    "population_proper": "29036"
  }, 
  {
    "city": "La Dorada", 
    "lat": "0.3436", 
    "lng": "-76.9108", 
    "country": "Colombia", 
    "iso2": "CO", 
    "admin_name": "Putumayo", 
    "capital": "minor", 
    "population": "28982", 
    "population_proper": "28982"
  }, 
  {
    "city": "La Calera", 
    "lat": "4.7197", 
    "lng": "-73.9700", 
    "country": "Colombia", 
    "iso2": "CO", 
    "admin_name": "Cundinamarca", 
    "capital": "minor", 
    "population": "28908", 
    "population_proper": "28908"
  }, 
  {
    "city": "Caicedonia", 
    "lat": "4.3347", 
    "lng": "-75.8281", 
    "country": "Colombia", 
    "iso2": "CO", 
    "admin_name": "Valle del Cauca", 
    "capital": "minor", 
    "population": "28825", 
    "population_proper": "28825"
  }, 
  {
    "city": "Hatonuevo", 
    "lat": "11.0672", 
    "lng": "-72.7631", 
    "country": "Colombia", 
    "iso2": "CO", 
    "admin_name": "La Guajira", 
    "capital": "minor", 
    "population": "28671", 
    "population_proper": "28671"
  }, 
  {
    "city": "San Carlos", 
    "lat": "8.7944", 
    "lng": "-75.6994", 
    "country": "Colombia", 
    "iso2": "CO", 
    "admin_name": "Córdoba", 
    "capital": "minor", 
    "population": "28597", 
    "population_proper": "28597"
  }, 
  {
    "city": "Isnos", 
    "lat": "1.9289", 
    "lng": "-76.2158", 
    "country": "Colombia", 
    "iso2": "CO", 
    "admin_name": "Huila", 
    "capital": "minor", 
    "population": "28530", 
    "population_proper": "28530"
  }, 
  {
    "city": "Coyaima", 
    "lat": "3.7975", 
    "lng": "-75.1939", 
    "country": "Colombia", 
    "iso2": "CO", 
    "admin_name": "Tolima", 
    "capital": "minor", 
    "population": "28443", 
    "population_proper": "28443"
  }, 
  {
    "city": "Mitú", 
    "lat": "1.2503", 
    "lng": "-70.2350", 
    "country": "Colombia", 
    "iso2": "CO", 
    "admin_name": "Vaupés", 
    "capital": "admin", 
    "population": "28382", 
    "population_proper": "28382"
  }, 
  {
    "city": "Guamal", 
    "lat": "9.1442", 
    "lng": "-74.2236", 
    "country": "Colombia", 
    "iso2": "CO", 
    "admin_name": "Magdalena", 
    "capital": "minor", 
    "population": "28277", 
    "population_proper": "28277"
  }, 
  {
    "city": "Luruaco", 
    "lat": "10.6083", 
    "lng": "-75.1417", 
    "country": "Colombia", 
    "iso2": "CO", 
    "admin_name": "Atlántico", 
    "capital": "minor", 
    "population": "28246", 
    "population_proper": "28246"
  }, 
  {
    "city": "Belén de Umbría", 
    "lat": "5.2006", 
    "lng": "-75.8689", 
    "country": "Colombia", 
    "iso2": "CO", 
    "admin_name": "Risaralda", 
    "capital": "minor", 
    "population": "27727", 
    "population_proper": "27727"
  }, 
  {
    "city": "Argelia", 
    "lat": "2.2558", 
    "lng": "-77.2492", 
    "country": "Colombia", 
    "iso2": "CO", 
    "admin_name": "Cauca", 
    "capital": "minor", 
    "population": "27670", 
    "population_proper": "27670"
  }, 
  {
    "city": "Supía", 
    "lat": "5.4506", 
    "lng": "-75.6514", 
    "country": "Colombia", 
    "iso2": "CO", 
    "admin_name": "Caldas", 
    "capital": "minor", 
    "population": "27489", 
    "population_proper": "27489"
  }, 
  {
    "city": "Ciudad Bolívar", 
    "lat": "5.8494", 
    "lng": "-76.0203", 
    "country": "Colombia", 
    "iso2": "CO", 
    "admin_name": "Antioquia", 
    "capital": "minor", 
    "population": "27458", 
    "population_proper": "27458"
  }, 
  {
    "city": "Repelón", 
    "lat": "10.4944", 
    "lng": "-75.1242", 
    "country": "Colombia", 
    "iso2": "CO", 
    "admin_name": "Atlántico", 
    "capital": "minor", 
    "population": "27445", 
    "population_proper": "27445"
  }, 
  {
    "city": "San Juan de Urabá", 
    "lat": "8.7611", 
    "lng": "-76.5286", 
    "country": "Colombia", 
    "iso2": "CO", 
    "admin_name": "Antioquia", 
    "capital": "minor", 
    "population": "27149", 
    "population_proper": "27149"
  }, 
  {
    "city": "Puerto Colombia", 
    "lat": "10.9922", 
    "lng": "-74.9528", 
    "country": "Colombia", 
    "iso2": "CO", 
    "admin_name": "Atlántico", 
    "capital": "minor", 
    "population": "26932", 
    "population_proper": "26932"
  }, 
  {
    "city": "Fortul", 
    "lat": "6.7931", 
    "lng": "-71.7714", 
    "country": "Colombia", 
    "iso2": "CO", 
    "admin_name": "Arauca", 
    "capital": "minor", 
    "population": "26798", 
    "population_proper": "26798"
  }, 
  {
    "city": "Morales", 
    "lat": "2.7603", 
    "lng": "-76.6339", 
    "country": "Colombia", 
    "iso2": "CO", 
    "admin_name": "Cauca", 
    "capital": "minor", 
    "population": "26707", 
    "population_proper": "26707"
  }, 
  {
    "city": "Los Córdobas", 
    "lat": "8.8953", 
    "lng": "-76.3547", 
    "country": "Colombia", 
    "iso2": "CO", 
    "admin_name": "Córdoba", 
    "capital": "minor", 
    "population": "26705", 
    "population_proper": "26705"
  }, 
  {
    "city": "San Benito Abad", 
    "lat": "8.9272", 
    "lng": "-75.0264", 
    "country": "Colombia", 
    "iso2": "CO", 
    "admin_name": "Sucre", 
    "capital": "minor", 
    "population": "26595", 
    "population_proper": "26595"
  }, 
  {
    "city": "San Alberto", 
    "lat": "7.7592", 
    "lng": "-73.3931", 
    "country": "Colombia", 
    "iso2": "CO", 
    "admin_name": "Cesar", 
    "capital": "minor", 
    "population": "26551", 
    "population_proper": "26551"
  }, 
  {
    "city": "Balboa", 
    "lat": "2.0406", 
    "lng": "-77.2164", 
    "country": "Colombia", 
    "iso2": "CO", 
    "admin_name": "Cauca", 
    "capital": "minor", 
    "population": "26384", 
    "population_proper": "26384"
  }, 
  {
    "city": "Pensilvania", 
    "lat": "5.3840", 
    "lng": "-75.1612", 
    "country": "Colombia", 
    "iso2": "CO", 
    "admin_name": "Caldas", 
    "capital": "minor", 
    "population": "26342", 
    "population_proper": "26342"
  }, 
  {
    "city": "Paz de Ariporo", 
    "lat": "5.8811", 
    "lng": "-71.8917", 
    "country": "Colombia", 
    "iso2": "CO", 
    "admin_name": "Casanare", 
    "capital": "minor", 
    "population": "26237", 
    "population_proper": "26237"
  }, 
  {
    "city": "Buesaco", 
    "lat": "1.3847", 
    "lng": "-77.1564", 
    "country": "Colombia", 
    "iso2": "CO", 
    "admin_name": "Nariño", 
    "capital": "minor", 
    "population": "26229", 
    "population_proper": "26229"
  }, 
  {
    "city": "Istmina", 
    "lat": "5.1633", 
    "lng": "-76.6867", 
    "country": "Colombia", 
    "iso2": "CO", 
    "admin_name": "Chocó", 
    "capital": "minor", 
    "population": "25981", 
    "population_proper": "25981"
  }, 
  {
    "city": "Santa Ana", 
    "lat": "9.3194", 
    "lng": "-74.5706", 
    "country": "Colombia", 
    "iso2": "CO", 
    "admin_name": "Magdalena", 
    "capital": "minor", 
    "population": "25938", 
    "population_proper": "25938"
  }, 
  {
    "city": "San Martín", 
    "lat": "3.6969", 
    "lng": "-73.6986", 
    "country": "Colombia", 
    "iso2": "CO", 
    "admin_name": "Meta", 
    "capital": "minor", 
    "population": "25902", 
    "population_proper": "25902"
  }, 
  {
    "city": "Palmar de Varela", 
    "lat": "10.7389", 
    "lng": "-74.7547", 
    "country": "Colombia", 
    "iso2": "CO", 
    "admin_name": "Atlántico", 
    "capital": "minor", 
    "population": "25886", 
    "population_proper": "25886"
  }, 
  {
    "city": "Nechí", 
    "lat": "8.0958", 
    "lng": "-74.7750", 
    "country": "Colombia", 
    "iso2": "CO", 
    "admin_name": "Antioquia", 
    "capital": "minor", 
    "population": "25790", 
    "population_proper": "25790"
  }, 
  {
    "city": "Yolombó", 
    "lat": "6.5978", 
    "lng": "-75.0122", 
    "country": "Colombia", 
    "iso2": "CO", 
    "admin_name": "Antioquia", 
    "capital": "minor", 
    "population": "25647", 
    "population_proper": "25647"
  }, 
  {
    "city": "Solano", 
    "lat": "0.6983", 
    "lng": "-75.2539", 
    "country": "Colombia", 
    "iso2": "CO", 
    "admin_name": "Caquetá", 
    "capital": "minor", 
    "population": "25546", 
    "population_proper": "25546"
  }, 
  {
    "city": "Vistahermosa", 
    "lat": "3.1239", 
    "lng": "-73.7514", 
    "country": "Colombia", 
    "iso2": "CO", 
    "admin_name": "Meta", 
    "capital": "minor", 
    "population": "25461", 
    "population_proper": "25461"
  }, 
  {
    "city": "San José", 
    "lat": "1.6967", 
    "lng": "-78.2453", 
    "country": "Colombia", 
    "iso2": "CO", 
    "admin_name": "Nariño", 
    "capital": "minor", 
    "population": "25433", 
    "population_proper": "25433"
  }, 
  {
    "city": "La Unión", 
    "lat": "1.6053", 
    "lng": "-77.1297", 
    "country": "Colombia", 
    "iso2": "CO", 
    "admin_name": "Nariño", 
    "capital": "minor", 
    "population": "25270", 
    "population_proper": "25270"
  }, 
  {
    "city": "Chocontá", 
    "lat": "5.1467", 
    "lng": "-73.6825", 
    "country": "Colombia", 
    "iso2": "CO", 
    "admin_name": "Cundinamarca", 
    "capital": "minor", 
    "population": "25257", 
    "population_proper": "25257"
  }, 
  {
    "city": "Sandoná", 
    "lat": "1.2847", 
    "lng": "-77.4711", 
    "country": "Colombia", 
    "iso2": "CO", 
    "admin_name": "Nariño", 
    "capital": "minor", 
    "population": "25220", 
    "population_proper": "25220"
  }, 
  {
    "city": "Pinillos", 
    "lat": "8.9150", 
    "lng": "-74.4619", 
    "country": "Colombia", 
    "iso2": "CO", 
    "admin_name": "Bolívar", 
    "capital": "minor", 
    "population": "24923", 
    "population_proper": "24923"
  }, 
  {
    "city": "Socorro", 
    "lat": "6.4603", 
    "lng": "-73.2700", 
    "country": "Colombia", 
    "iso2": "CO", 
    "admin_name": "Santander", 
    "capital": "minor", 
    "population": "24895", 
    "population_proper": "17752"
  }, 
  {
    "city": "Tauramena", 
    "lat": "5.0167", 
    "lng": "-72.7500", 
    "country": "Colombia", 
    "iso2": "CO", 
    "admin_name": "Casanare", 
    "capital": "minor", 
    "population": "24747", 
    "population_proper": "24747"
  }, 
  {
    "city": "Villanueva", 
    "lat": "4.6087", 
    "lng": "-72.9288", 
    "country": "Colombia", 
    "iso2": "CO", 
    "admin_name": "Casanare", 
    "capital": "minor", 
    "population": "24740", 
    "population_proper": "24740"
  }, 
  {
    "city": "Algeciras", 
    "lat": "2.5219", 
    "lng": "-75.3144", 
    "country": "Colombia", 
    "iso2": "CO", 
    "admin_name": "Huila", 
    "capital": "minor", 
    "population": "24708", 
    "population_proper": "24708"
  }, 
  {
    "city": "Santa Rosa", 
    "lat": "10.4456", 
    "lng": "-75.3686", 
    "country": "Colombia", 
    "iso2": "CO", 
    "admin_name": "Bolívar", 
    "capital": "minor", 
    "population": "24694", 
    "population_proper": "24694"
  }, 
  {
    "city": "Pueblo Bello", 
    "lat": "10.4164", 
    "lng": "-73.5867", 
    "country": "Colombia", 
    "iso2": "CO", 
    "admin_name": "Cesar", 
    "capital": "minor", 
    "population": "24572", 
    "population_proper": "24572"
  }, 
  {
    "city": "El Retorno", 
    "lat": "2.3306", 
    "lng": "-72.6278", 
    "country": "Colombia", 
    "iso2": "CO", 
    "admin_name": "Guaviare", 
    "capital": "minor", 
    "population": "24562", 
    "population_proper": "24562"
  }, 
  {
    "city": "Valdivia", 
    "lat": "7.1636", 
    "lng": "-75.4392", 
    "country": "Colombia", 
    "iso2": "CO", 
    "admin_name": "Antioquia", 
    "capital": "minor", 
    "population": "24538", 
    "population_proper": "24538"
  }, 
  {
    "city": "Puerto Guzmán", 
    "lat": "0.9636", 
    "lng": "-76.4086", 
    "country": "Colombia", 
    "iso2": "CO", 
    "admin_name": "Putumayo", 
    "capital": "minor", 
    "population": "24355", 
    "population_proper": "24355"
  }, 
  {
    "city": "La Montañita", 
    "lat": "1.4792", 
    "lng": "-75.4361", 
    "country": "Colombia", 
    "iso2": "CO", 
    "admin_name": "Caquetá", 
    "capital": "minor", 
    "population": "24323", 
    "population_proper": "24323"
  }, 
  {
    "city": "Donmatías", 
    "lat": "6.4858", 
    "lng": "-75.3953", 
    "country": "Colombia", 
    "iso2": "CO", 
    "admin_name": "Antioquia", 
    "capital": "minor", 
    "population": "24201", 
    "population_proper": "24201"
  }, 
  {
    "city": "Rioblanco", 
    "lat": "3.5292", 
    "lng": "-75.6447", 
    "country": "Colombia", 
    "iso2": "CO", 
    "admin_name": "Tolima", 
    "capital": "minor", 
    "population": "24139", 
    "population_proper": "24139"
  }, 
  {
    "city": "Marsella", 
    "lat": "4.9367", 
    "lng": "-75.7392", 
    "country": "Colombia", 
    "iso2": "CO", 
    "admin_name": "Risaralda", 
    "capital": "minor", 
    "population": "24131", 
    "population_proper": "24131"
  }, 
  {
    "city": "Cogua", 
    "lat": "5.0619", 
    "lng": "-73.9794", 
    "country": "Colombia", 
    "iso2": "CO", 
    "admin_name": "Cundinamarca", 
    "capital": "minor", 
    "population": "24092", 
    "population_proper": "24092"
  }, 
  {
    "city": "El Zulia", 
    "lat": "7.9325", 
    "lng": "-72.6025", 
    "country": "Colombia", 
    "iso2": "CO", 
    "admin_name": "Norte de Santander", 
    "capital": "minor", 
    "population": "23921", 
    "population_proper": "23921"
  }, 
  {
    "city": "Honda", 
    "lat": "5.2069", 
    "lng": "-74.7367", 
    "country": "Colombia", 
    "iso2": "CO", 
    "admin_name": "Tolima", 
    "capital": "minor", 
    "population": "23830", 
    "population_proper": "23830"
  }, 
  {
    "city": "El Paso", 
    "lat": "9.6622", 
    "lng": "-73.7519", 
    "country": "Colombia", 
    "iso2": "CO", 
    "admin_name": "Cesar", 
    "capital": "minor", 
    "population": "23534", 
    "population_proper": "23534"
  }, 
  {
    "city": "Canalete", 
    "lat": "8.7900", 
    "lng": "-76.2411", 
    "country": "Colombia", 
    "iso2": "CO", 
    "admin_name": "Córdoba", 
    "capital": "minor", 
    "population": "23520", 
    "population_proper": "23520"
  }, 
  {
    "city": "Teorama", 
    "lat": "8.4353", 
    "lng": "-73.2864", 
    "country": "Colombia", 
    "iso2": "CO", 
    "admin_name": "Norte de Santander", 
    "capital": "minor", 
    "population": "23381", 
    "population_proper": "23381"
  }, 
  {
    "city": "San José", 
    "lat": "1.4739", 
    "lng": "-77.0808", 
    "country": "Colombia", 
    "iso2": "CO", 
    "admin_name": "Nariño", 
    "capital": "minor", 
    "population": "23279", 
    "population_proper": "23279"
  }, 
  {
    "city": "Ponedera", 
    "lat": "10.6419", 
    "lng": "-74.7531", 
    "country": "Colombia", 
    "iso2": "CO", 
    "admin_name": "Atlántico", 
    "capital": "minor", 
    "population": "23243", 
    "population_proper": "23243"
  }, 
  {
    "city": "Alcalá", 
    "lat": "4.6736", 
    "lng": "-75.7825", 
    "country": "Colombia", 
    "iso2": "CO", 
    "admin_name": "Valle del Cauca", 
    "capital": "minor", 
    "population": "23195", 
    "population_proper": "23195"
  }, 
  {
    "city": "Puerto Concordia", 
    "lat": "2.6233", 
    "lng": "-72.7592", 
    "country": "Colombia", 
    "iso2": "CO", 
    "admin_name": "Meta", 
    "capital": "minor", 
    "population": "23131", 
    "population_proper": "23131"
  }, 
  {
    "city": "Achí", 
    "lat": "8.5692", 
    "lng": "-74.5561", 
    "country": "Colombia", 
    "iso2": "CO", 
    "admin_name": "Bolívar", 
    "capital": "minor", 
    "population": "23051", 
    "population_proper": "23051"
  }, 
  {
    "city": "Curumaní", 
    "lat": "9.1997", 
    "lng": "-73.5425", 
    "country": "Colombia", 
    "iso2": "CO", 
    "admin_name": "Cesar", 
    "capital": "minor", 
    "population": "23018", 
    "population_proper": "23018"
  }, 
  {
    "city": "Dabeiba", 
    "lat": "7.0014", 
    "lng": "-76.2611", 
    "country": "Colombia", 
    "iso2": "CO", 
    "admin_name": "Antioquia", 
    "capital": "minor", 
    "population": "22954", 
    "population_proper": "22954"
  }, 
  {
    "city": "Guadalupe", 
    "lat": "2.0250", 
    "lng": "-75.7564", 
    "country": "Colombia", 
    "iso2": "CO", 
    "admin_name": "Huila", 
    "capital": "minor", 
    "population": "22867", 
    "population_proper": "22867"
  }, 
  {
    "city": "Ataco", 
    "lat": "3.5897", 
    "lng": "-75.3822", 
    "country": "Colombia", 
    "iso2": "CO", 
    "admin_name": "Tolima", 
    "capital": "minor", 
    "population": "22818", 
    "population_proper": "22818"
  }, 
  {
    "city": "Santa Fe de Antioquia", 
    "lat": "6.5564", 
    "lng": "-75.8275", 
    "country": "Colombia", 
    "iso2": "CO", 
    "admin_name": "Antioquia", 
    "capital": "minor", 
    "population": "22764", 
    "population_proper": "22764"
  }, 
  {
    "city": "Amalfi", 
    "lat": "6.9092", 
    "lng": "-75.0767", 
    "country": "Colombia", 
    "iso2": "CO", 
    "admin_name": "Antioquia", 
    "capital": "minor", 
    "population": "22714", 
    "population_proper": "22714"
  }, 
  {
    "city": "Buenavista", 
    "lat": "8.2233", 
    "lng": "-75.4817", 
    "country": "Colombia", 
    "iso2": "CO", 
    "admin_name": "Córdoba", 
    "capital": "minor", 
    "population": "22711", 
    "population_proper": "22711"
  }, 
  {
    "city": "Manzanares", 
    "lat": "5.2519", 
    "lng": "-75.1569", 
    "country": "Colombia", 
    "iso2": "CO", 
    "admin_name": "Caldas", 
    "capital": "minor", 
    "population": "22623", 
    "population_proper": "22623"
  }, 
  {
    "city": "Sardinata", 
    "lat": "8.0836", 
    "lng": "-72.8003", 
    "country": "Colombia", 
    "iso2": "CO", 
    "admin_name": "Norte de Santander", 
    "capital": "minor", 
    "population": "22583", 
    "population_proper": "22583"
  }, 
  {
    "city": "Mutatá", 
    "lat": "7.2433", 
    "lng": "-76.4358", 
    "country": "Colombia", 
    "iso2": "CO", 
    "admin_name": "Antioquia", 
    "capital": "minor", 
    "population": "22505", 
    "population_proper": "22505"
  }, 
  {
    "city": "La Jagua de Ibirico", 
    "lat": "9.5611", 
    "lng": "-73.3364", 
    "country": "Colombia", 
    "iso2": "CO", 
    "admin_name": "Cesar", 
    "capital": "minor", 
    "population": "22405", 
    "population_proper": "22405"
  }, 
  {
    "city": "Natagaima", 
    "lat": "3.6231", 
    "lng": "-75.0936", 
    "country": "Colombia", 
    "iso2": "CO", 
    "admin_name": "Tolima", 
    "capital": "minor", 
    "population": "22320", 
    "population_proper": "22320"
  }, 
  {
    "city": "El Doncello", 
    "lat": "1.6800", 
    "lng": "-75.2850", 
    "country": "Colombia", 
    "iso2": "CO", 
    "admin_name": "Caquetá", 
    "capital": "minor", 
    "population": "22306", 
    "population_proper": "22306"
  }, 
  {
    "city": "El Colegio", 
    "lat": "4.5808", 
    "lng": "-74.4425", 
    "country": "Colombia", 
    "iso2": "CO", 
    "admin_name": "Cundinamarca", 
    "capital": "minor", 
    "population": "22247", 
    "population_proper": "22247"
  }, 
  {
    "city": "Pailitas", 
    "lat": "8.9597", 
    "lng": "-73.6250", 
    "country": "Colombia", 
    "iso2": "CO", 
    "admin_name": "Cesar", 
    "capital": "minor", 
    "population": "22083", 
    "population_proper": "22083"
  }, 
  {
    "city": "Timbiquí", 
    "lat": "2.7719", 
    "lng": "-77.6650", 
    "country": "Colombia", 
    "iso2": "CO", 
    "admin_name": "Cauca", 
    "capital": "minor", 
    "population": "22077", 
    "population_proper": "22077"
  }, 
  {
    "city": "Tiquisio", 
    "lat": "8.5578", 
    "lng": "-74.2639", 
    "country": "Colombia", 
    "iso2": "CO", 
    "admin_name": "Bolívar", 
    "capital": "minor", 
    "population": "22041", 
    "population_proper": "22041"
  }, 
  {
    "city": "Mocoa", 
    "lat": "1.1492", 
    "lng": "-76.6464", 
    "country": "Colombia", 
    "iso2": "CO", 
    "admin_name": "Putumayo", 
    "capital": "admin", 
    "population": "22035", 
    "population_proper": "22035"
  }, 
  {
    "city": "Silvania", 
    "lat": "4.4033", 
    "lng": "-74.3881", 
    "country": "Colombia", 
    "iso2": "CO", 
    "admin_name": "Cundinamarca", 
    "capital": "minor", 
    "population": "22020", 
    "population_proper": "22020"
  }, 
  {
    "city": "Taminango", 
    "lat": "1.5700", 
    "lng": "-77.2806", 
    "country": "Colombia", 
    "iso2": "CO", 
    "admin_name": "Nariño", 
    "capital": "minor", 
    "population": "21985", 
    "population_proper": "21985"
  }, 
  {
    "city": "Ginebra", 
    "lat": "3.7244", 
    "lng": "-76.2672", 
    "country": "Colombia", 
    "iso2": "CO", 
    "admin_name": "Valle del Cauca", 
    "capital": "minor", 
    "population": "21815", 
    "population_proper": "21815"
  }, 
  {
    "city": "Puerto Triunfo", 
    "lat": "5.8728", 
    "lng": "-74.6397", 
    "country": "Colombia", 
    "iso2": "CO", 
    "admin_name": "Antioquia", 
    "capital": "minor", 
    "population": "21745", 
    "population_proper": "21745"
  }, 
  {
    "city": "San Jacinto", 
    "lat": "9.8311", 
    "lng": "-75.1219", 
    "country": "Colombia", 
    "iso2": "CO", 
    "admin_name": "Bolívar", 
    "capital": "minor", 
    "population": "21644", 
    "population_proper": "21644"
  }, 
  {
    "city": "Nueva Granada", 
    "lat": "9.8011", 
    "lng": "-74.3917", 
    "country": "Colombia", 
    "iso2": "CO", 
    "admin_name": "Magdalena", 
    "capital": "minor", 
    "population": "21612", 
    "population_proper": "21612"
  }, 
  {
    "city": "Galeras", 
    "lat": "9.1586", 
    "lng": "-75.0489", 
    "country": "Colombia", 
    "iso2": "CO", 
    "admin_name": "Sucre", 
    "capital": "minor", 
    "population": "21548", 
    "population_proper": "21548"
  }, 
  {
    "city": "Villagarzón", 
    "lat": "1.0294", 
    "lng": "-76.6164", 
    "country": "Colombia", 
    "iso2": "CO", 
    "admin_name": "Putumayo", 
    "capital": "minor", 
    "population": "21507", 
    "population_proper": "21507"
  }, 
  {
    "city": "San Bernardo", 
    "lat": "1.5164", 
    "lng": "-77.0467", 
    "country": "Colombia", 
    "iso2": "CO", 
    "admin_name": "Nariño", 
    "capital": "minor", 
    "population": "21492", 
    "population_proper": "21492"
  }, 
  {
    "city": "El Paujíl", 
    "lat": "1.5694", 
    "lng": "-75.3264", 
    "country": "Colombia", 
    "iso2": "CO", 
    "admin_name": "Caquetá", 
    "capital": "minor", 
    "population": "21462", 
    "population_proper": "21462"
  }, 
  {
    "city": "Santa Bárbara", 
    "lat": "5.8747", 
    "lng": "-75.5661", 
    "country": "Colombia", 
    "iso2": "CO", 
    "admin_name": "Antioquia", 
    "capital": "minor", 
    "population": "21413", 
    "population_proper": "21413"
  }, 
  {
    "city": "Moniquirá", 
    "lat": "5.8744", 
    "lng": "-73.5717", 
    "country": "Colombia", 
    "iso2": "CO", 
    "admin_name": "Boyacá", 
    "capital": "minor", 
    "population": "21402", 
    "population_proper": "21402"
  }, 
  {
    "city": "Almaguer", 
    "lat": "1.9131", 
    "lng": "-76.8561", 
    "country": "Colombia", 
    "iso2": "CO", 
    "admin_name": "Cauca", 
    "capital": "minor", 
    "population": "21374", 
    "population_proper": "21374"
  }, 
  {
    "city": "Totoró", 
    "lat": "2.5103", 
    "lng": "-76.4019", 
    "country": "Colombia", 
    "iso2": "CO", 
    "admin_name": "Cauca", 
    "capital": "minor", 
    "population": "21298", 
    "population_proper": "21298"
  }, 
  {
    "city": "Aguadas", 
    "lat": "5.6092", 
    "lng": "-75.4564", 
    "country": "Colombia", 
    "iso2": "CO", 
    "admin_name": "Caldas", 
    "capital": "minor", 
    "population": "21237", 
    "population_proper": "21237"
  }, 
  {
    "city": "Montecristo", 
    "lat": "8.2958", 
    "lng": "-74.4728", 
    "country": "Colombia", 
    "iso2": "CO", 
    "admin_name": "Bolívar", 
    "capital": "minor", 
    "population": "21229", 
    "population_proper": "21229"
  }, 
  {
    "city": "Suaza", 
    "lat": "1.9750", 
    "lng": "-75.7956", 
    "country": "Colombia", 
    "iso2": "CO", 
    "admin_name": "Huila", 
    "capital": "minor", 
    "population": "21119", 
    "population_proper": "21119"
  }, 
  {
    "city": "Villapinzón", 
    "lat": "5.2158", 
    "lng": "-73.5967", 
    "country": "Colombia", 
    "iso2": "CO", 
    "admin_name": "Cundinamarca", 
    "capital": "minor", 
    "population": "21049", 
    "population_proper": "21049"
  }, 
  {
    "city": "Fredonia", 
    "lat": "5.9267", 
    "lng": "-75.6739", 
    "country": "Colombia", 
    "iso2": "CO", 
    "admin_name": "Antioquia", 
    "capital": "minor", 
    "population": "20997", 
    "population_proper": "20997"
  }, 
  {
    "city": "El Retén", 
    "lat": "10.6106", 
    "lng": "-74.2683", 
    "country": "Colombia", 
    "iso2": "CO", 
    "admin_name": "Magdalena", 
    "capital": "minor", 
    "population": "20981", 
    "population_proper": "20981"
  }, 
  {
    "city": "Bugalagrande", 
    "lat": "4.2075", 
    "lng": "-76.1575", 
    "country": "Colombia", 
    "iso2": "CO", 
    "admin_name": "Valle del Cauca", 
    "capital": "minor", 
    "population": "20970", 
    "population_proper": "20970"
  }, 
  {
    "city": "López", 
    "lat": "2.8464", 
    "lng": "-77.2472", 
    "country": "Colombia", 
    "iso2": "CO", 
    "admin_name": "Cauca", 
    "capital": "minor", 
    "population": "20867", 
    "population_proper": "20867"
  }, 
  {
    "city": "Sotomayor", 
    "lat": "1.4933", 
    "lng": "-77.5214", 
    "country": "Colombia", 
    "iso2": "CO", 
    "admin_name": "Nariño", 
    "capital": "minor", 
    "population": "20865", 
    "population_proper": "20865"
  }, 
  {
    "city": "Ovejas", 
    "lat": "9.5258", 
    "lng": "-75.2272", 
    "country": "Colombia", 
    "iso2": "CO", 
    "admin_name": "Sucre", 
    "capital": "minor", 
    "population": "20846", 
    "population_proper": "20846"
  }, 
  {
    "city": "Samacá", 
    "lat": "5.4919", 
    "lng": "-73.4867", 
    "country": "Colombia", 
    "iso2": "CO", 
    "admin_name": "Boyacá", 
    "capital": "minor", 
    "population": "20767", 
    "population_proper": "20767"
  }, 
  {
    "city": "Timaná", 
    "lat": "1.9499", 
    "lng": "-75.9139", 
    "country": "Colombia", 
    "iso2": "CO", 
    "admin_name": "Huila", 
    "capital": "minor", 
    "population": "20463", 
    "population_proper": "20463"
  }, 
  {
    "city": "San Lorenzo", 
    "lat": "1.5039", 
    "lng": "-77.2178", 
    "country": "Colombia", 
    "iso2": "CO", 
    "admin_name": "Nariño", 
    "capital": "minor", 
    "population": "20403", 
    "population_proper": "20403"
  }, 
  {
    "city": "Concordia", 
    "lat": "6.0456", 
    "lng": "-75.9075", 
    "country": "Colombia", 
    "iso2": "CO", 
    "admin_name": "Antioquia", 
    "capital": "minor", 
    "population": "20271", 
    "population_proper": "20271"
  }, 
  {
    "city": "Simití", 
    "lat": "7.9564", 
    "lng": "-73.9461", 
    "country": "Colombia", 
    "iso2": "CO", 
    "admin_name": "Bolívar", 
    "capital": "minor", 
    "population": "20271", 
    "population_proper": "20271"
  }, 
  {
    "city": "Tenjo", 
    "lat": "4.8697", 
    "lng": "-74.1439", 
    "country": "Colombia", 
    "iso2": "CO", 
    "admin_name": "Cundinamarca", 
    "capital": "minor", 
    "population": "20269", 
    "population_proper": "20269"
  }, 
  {
    "city": "Rovira", 
    "lat": "4.2392", 
    "lng": "-75.2403", 
    "country": "Colombia", 
    "iso2": "CO", 
    "admin_name": "Tolima", 
    "capital": "minor", 
    "population": "20255", 
    "population_proper": "20255"
  }, 
  {
    "city": "Inírida", 
    "lat": "3.8708", 
    "lng": "-67.9211", 
    "country": "Colombia", 
    "iso2": "CO", 
    "admin_name": "Guainía", 
    "capital": "admin", 
    "population": "19816", 
    "population_proper": "19816"
  }, 
  {
    "city": "Urumita", 
    "lat": "10.5603", 
    "lng": "-73.0136", 
    "country": "Colombia", 
    "iso2": "CO", 
    "admin_name": "La Guajira", 
    "capital": "minor", 
    "population": "19629", 
    "population_proper": "19629"
  }, 
  {
    "city": "Polonuevo", 
    "lat": "10.7772", 
    "lng": "-74.8528", 
    "country": "Colombia", 
    "iso2": "CO", 
    "admin_name": "Atlántico", 
    "capital": "minor", 
    "population": "19454", 
    "population_proper": "19454"
  }, 
  {
    "city": "La Unión", 
    "lat": "5.9728", 
    "lng": "-75.3611", 
    "country": "Colombia", 
    "iso2": "CO", 
    "admin_name": "Antioquia", 
    "capital": "minor", 
    "population": "19119", 
    "population_proper": "19119"
  }, 
  {
    "city": "Tadó", 
    "lat": "5.2633", 
    "lng": "-76.5600", 
    "country": "Colombia", 
    "iso2": "CO", 
    "admin_name": "Chocó", 
    "capital": "minor", 
    "population": "18906", 
    "population_proper": "18906"
  }, 
  {
    "city": "Vélez", 
    "lat": "6.0131", 
    "lng": "-73.6736", 
    "country": "Colombia", 
    "iso2": "CO", 
    "admin_name": "Santander", 
    "capital": "minor", 
    "population": "18808", 
    "population_proper": "18808"
  }, 
  {
    "city": "Tocaima", 
    "lat": "4.4578", 
    "lng": "-74.6347", 
    "country": "Colombia", 
    "iso2": "CO", 
    "admin_name": "Cundinamarca", 
    "capital": "minor", 
    "population": "18790", 
    "population_proper": "18790"
  }, 
  {
    "city": "Villa de Leyva", 
    "lat": "5.6331", 
    "lng": "-73.5256", 
    "country": "Colombia", 
    "iso2": "CO", 
    "admin_name": "Boyacá", 
    "capital": "minor", 
    "population": "18598", 
    "population_proper": "18598"
  }, 
  {
    "city": "Campo de la Cruz", 
    "lat": "10.3778", 
    "lng": "-74.8814", 
    "country": "Colombia", 
    "iso2": "CO", 
    "admin_name": "Atlántico", 
    "capital": "minor", 
    "population": "18354", 
    "population_proper": "18354"
  }, 
  {
    "city": "Sabana de Torres", 
    "lat": "7.3903", 
    "lng": "-73.5003", 
    "country": "Colombia", 
    "iso2": "CO", 
    "admin_name": "Santander", 
    "capital": "minor", 
    "population": "17965", 
    "population_proper": "17965"
  }, 
  {
    "city": "Pelaya", 
    "lat": "8.6892", 
    "lng": "-73.6653", 
    "country": "Colombia", 
    "iso2": "CO", 
    "admin_name": "Cesar", 
    "capital": "minor", 
    "population": "17910", 
    "population_proper": "17910"
  }, 
  {
    "city": "Salgar", 
    "lat": "5.9639", 
    "lng": "-75.9775", 
    "country": "Colombia", 
    "iso2": "CO", 
    "admin_name": "Antioquia", 
    "capital": "minor", 
    "population": "17804", 
    "population_proper": "17804"
  }, 
  {
    "city": "La Primavera", 
    "lat": "5.4906", 
    "lng": "-70.4092", 
    "country": "Colombia", 
    "iso2": "CO", 
    "admin_name": "Vichada", 
    "capital": "minor", 
    "population": "17626", 
    "population_proper": "17626"
  }, 
  {
    "city": "Guaranda", 
    "lat": "8.4672", 
    "lng": "-74.5367", 
    "country": "Colombia", 
    "iso2": "CO", 
    "admin_name": "Sucre", 
    "capital": "minor", 
    "population": "17422", 
    "population_proper": "17422"
  }, 
  {
    "city": "Suesca", 
    "lat": "5.1017", 
    "lng": "-73.7981", 
    "country": "Colombia", 
    "iso2": "CO", 
    "admin_name": "Cundinamarca", 
    "capital": "minor", 
    "population": "17318", 
    "population_proper": "17318"
  }, 
  {
    "city": "Betulia", 
    "lat": "6.1122", 
    "lng": "-75.9839", 
    "country": "Colombia", 
    "iso2": "CO", 
    "admin_name": "Antioquia", 
    "capital": "minor", 
    "population": "17317", 
    "population_proper": "17317"
  }, 
  {
    "city": "El Rosal", 
    "lat": "4.8519", 
    "lng": "-74.2628", 
    "country": "Colombia", 
    "iso2": "CO", 
    "admin_name": "Cundinamarca", 
    "capital": "minor", 
    "population": "17254", 
    "population_proper": "17254"
  }, 
  {
    "city": "Retiro", 
    "lat": "6.0597", 
    "lng": "-75.5039", 
    "country": "Colombia", 
    "iso2": "CO", 
    "admin_name": "Antioquia", 
    "capital": "minor", 
    "population": "16974", 
    "population_proper": "16974"
  }, 
  {
    "city": "Puerto Carreño", 
    "lat": "6.1889", 
    "lng": "-67.4858", 
    "country": "Colombia", 
    "iso2": "CO", 
    "admin_name": "Vichada", 
    "capital": "admin", 
    "population": "16763", 
    "population_proper": "16763"
  }, 
  {
    "city": "El Piñón", 
    "lat": "10.4039", 
    "lng": "-74.8231", 
    "country": "Colombia", 
    "iso2": "CO", 
    "admin_name": "Magdalena", 
    "capital": "minor", 
    "population": "16752", 
    "population_proper": "16752"
  }, 
  {
    "city": "Anorí", 
    "lat": "7.0736", 
    "lng": "-75.1469", 
    "country": "Colombia", 
    "iso2": "CO", 
    "admin_name": "Antioquia", 
    "capital": "minor", 
    "population": "16447", 
    "population_proper": "16447"
  }, 
  {
    "city": "Aquitania", 
    "lat": "5.5194", 
    "lng": "-72.8836", 
    "country": "Colombia", 
    "iso2": "CO", 
    "admin_name": "Boyacá", 
    "capital": "minor", 
    "population": "16087", 
    "population_proper": "16087"
  }, 
  {
    "city": "Chivolo", 
    "lat": "10.0264", 
    "lng": "-74.6214", 
    "country": "Colombia", 
    "iso2": "CO", 
    "admin_name": "Magdalena", 
    "capital": "minor", 
    "population": "15960", 
    "population_proper": "15960"
  }, 
  {
    "city": "Guasca", 
    "lat": "4.8658", 
    "lng": "-73.8772", 
    "country": "Colombia", 
    "iso2": "CO", 
    "admin_name": "Cundinamarca", 
    "capital": "minor", 
    "population": "15727", 
    "population_proper": "15727"
  }, 
  {
    "city": "Landázuri", 
    "lat": "6.2181", 
    "lng": "-73.8114", 
    "country": "Colombia", 
    "iso2": "CO", 
    "admin_name": "Santander", 
    "capital": "minor", 
    "population": "15395", 
    "population_proper": "15395"
  }, 
  {
    "city": "Támesis", 
    "lat": "5.6647", 
    "lng": "-75.7144", 
    "country": "Colombia", 
    "iso2": "CO", 
    "admin_name": "Antioquia", 
    "capital": "minor", 
    "population": "15218", 
    "population_proper": "15218"
  }, 
  {
    "city": "Obando", 
    "lat": "4.5761", 
    "lng": "-75.9731", 
    "country": "Colombia", 
    "iso2": "CO", 
    "admin_name": "Valle del Cauca", 
    "capital": "minor", 
    "population": "14980", 
    "population_proper": "14980"
  }, 
  {
    "city": "Condoto", 
    "lat": "5.0917", 
    "lng": "-76.6500", 
    "country": "Colombia", 
    "iso2": "CO", 
    "admin_name": "Chocó", 
    "capital": "minor", 
    "population": "14660", 
    "population_proper": "14660"
  }, 
  {
    "city": "Sopetrán", 
    "lat": "6.5017", 
    "lng": "-75.7433", 
    "country": "Colombia", 
    "iso2": "CO", 
    "admin_name": "Antioquia", 
    "capital": "minor", 
    "population": "14453", 
    "population_proper": "14453"
  }, 
  {
    "city": "Tenerife", 
    "lat": "9.8989", 
    "lng": "-74.8589", 
    "country": "Colombia", 
    "iso2": "CO", 
    "admin_name": "Magdalena", 
    "capital": "minor", 
    "population": "14320", 
    "population_proper": "14320"
  }, 
  {
    "city": "Juan de Acosta", 
    "lat": "10.8286", 
    "lng": "-75.0350", 
    "country": "Colombia", 
    "iso2": "CO", 
    "admin_name": "Atlántico", 
    "capital": "minor", 
    "population": "14184", 
    "population_proper": "14184"
  }, 
  {
    "city": "Titiribí", 
    "lat": "6.0625", 
    "lng": "-75.7936", 
    "country": "Colombia", 
    "iso2": "CO", 
    "admin_name": "Antioquia", 
    "capital": "minor", 
    "population": "14092", 
    "population_proper": "14092"
  }, 
  {
    "city": "El Carmen de Atrato", 
    "lat": "5.8983", 
    "lng": "-76.1431", 
    "country": "Colombia", 
    "iso2": "CO", 
    "admin_name": "Chocó", 
    "capital": "minor", 
    "population": "14049", 
    "population_proper": "14049"
  }, 
  {
    "city": "Río de Oro", 
    "lat": "8.2917", 
    "lng": "-73.3872", 
    "country": "Colombia", 
    "iso2": "CO", 
    "admin_name": "Cesar", 
    "capital": "minor", 
    "population": "14041", 
    "population_proper": "14041"
  }, 
  {
    "city": "Córdoba", 
    "lat": "0.8533", 
    "lng": "-77.5178", 
    "country": "Colombia", 
    "iso2": "CO", 
    "admin_name": "Nariño", 
    "capital": "minor", 
    "population": "14006", 
    "population_proper": "14006"
  }, 
  {
    "city": "Guapí", 
    "lat": "2.5604", 
    "lng": "-77.8600", 
    "country": "Colombia", 
    "iso2": "CO", 
    "admin_name": "Cauca", 
    "capital": "minor", 
    "population": "13853", 
    "population_proper": "13853"
  }, 
  {
    "city": "Jardín", 
    "lat": "5.5983", 
    "lng": "-75.8197", 
    "country": "Colombia", 
    "iso2": "CO", 
    "admin_name": "Antioquia", 
    "capital": "minor", 
    "population": "13748", 
    "population_proper": "13748"
  }, 
  {
    "city": "Altos del Rosario", 
    "lat": "8.7914", 
    "lng": "-74.1636", 
    "country": "Colombia", 
    "iso2": "CO", 
    "admin_name": "Bolívar", 
    "capital": "minor", 
    "population": "13669", 
    "population_proper": "13669"
  }, 
  {
    "city": "Filandia", 
    "lat": "4.6733", 
    "lng": "-75.6583", 
    "country": "Colombia", 
    "iso2": "CO", 
    "admin_name": "Quindío", 
    "capital": "minor", 
    "population": "13628", 
    "population_proper": "13628"
  }, 
  {
    "city": "Manatí", 
    "lat": "10.4481", 
    "lng": "-74.9592", 
    "country": "Colombia", 
    "iso2": "CO", 
    "admin_name": "Atlántico", 
    "capital": "minor", 
    "population": "13456", 
    "population_proper": "13456"
  }, 
  {
    "city": "San Jacinto del Cauca", 
    "lat": "8.2497", 
    "lng": "-74.7200", 
    "country": "Colombia", 
    "iso2": "CO", 
    "admin_name": "Bolívar", 
    "capital": "minor", 
    "population": "13426", 
    "population_proper": "13426"
  }, 
  {
    "city": "Rosas", 
    "lat": "2.2600", 
    "lng": "-76.7400", 
    "country": "Colombia", 
    "iso2": "CO", 
    "admin_name": "Cauca", 
    "capital": "minor", 
    "population": "13302", 
    "population_proper": "13302"
  }, 
  {
    "city": "Anolaima", 
    "lat": "4.7633", 
    "lng": "-74.4647", 
    "country": "Colombia", 
    "iso2": "CO", 
    "admin_name": "Cundinamarca", 
    "capital": "minor", 
    "population": "12911", 
    "population_proper": "12911"
  }, 
  {
    "city": "Los Santos", 
    "lat": "6.7561", 
    "lng": "-73.1022", 
    "country": "Colombia", 
    "iso2": "CO", 
    "admin_name": "Santander", 
    "capital": "minor", 
    "population": "12648", 
    "population_proper": "12648"
  }, 
  {
    "city": "Santa Bárbara de Pinto", 
    "lat": "9.4353", 
    "lng": "-74.7017", 
    "country": "Colombia", 
    "iso2": "CO", 
    "admin_name": "Magdalena", 
    "capital": "minor", 
    "population": "12610", 
    "population_proper": "12610"
  }, 
  {
    "city": "Candelaria", 
    "lat": "10.4592", 
    "lng": "-74.8806", 
    "country": "Colombia", 
    "iso2": "CO", 
    "admin_name": "Atlántico", 
    "capital": "minor", 
    "population": "12576", 
    "population_proper": "12576"
  }, 
  {
    "city": "Saboyá", 
    "lat": "5.6969", 
    "lng": "-73.7631", 
    "country": "Colombia", 
    "iso2": "CO", 
    "admin_name": "Boyacá", 
    "capital": "minor", 
    "population": "12372", 
    "population_proper": "12372"
  }, 
  {
    "city": "Hatillo de Loba", 
    "lat": "8.9556", 
    "lng": "-74.0769", 
    "country": "Colombia", 
    "iso2": "CO", 
    "admin_name": "Bolívar", 
    "capital": "minor", 
    "population": "12270", 
    "population_proper": "12270"
  }, 
  {
    "city": "Córdoba", 
    "lat": "9.5000", 
    "lng": "-74.9167", 
    "country": "Colombia", 
    "iso2": "CO", 
    "admin_name": "Bolívar", 
    "capital": "minor", 
    "population": "12266", 
    "population_proper": "12266"
  }, 
  {
    "city": "Ebéjico", 
    "lat": "6.3264", 
    "lng": "-75.7661", 
    "country": "Colombia", 
    "iso2": "CO", 
    "admin_name": "Antioquia", 
    "capital": "minor", 
    "population": "12158", 
    "population_proper": "12158"
  }, 
  {
    "city": "Caimito", 
    "lat": "8.7894", 
    "lng": "-75.1161", 
    "country": "Colombia", 
    "iso2": "CO", 
    "admin_name": "Sucre", 
    "capital": "minor", 
    "population": "12077", 
    "population_proper": "12077"
  }, 
  {
    "city": "Curití", 
    "lat": "6.6044", 
    "lng": "-73.0681", 
    "country": "Colombia", 
    "iso2": "CO", 
    "admin_name": "Santander", 
    "capital": "minor", 
    "population": "12065", 
    "population_proper": "12065"
  }, 
  {
    "city": "Oiba", 
    "lat": "6.2639", 
    "lng": "-73.2992", 
    "country": "Colombia", 
    "iso2": "CO", 
    "admin_name": "Santander", 
    "capital": "minor", 
    "population": "12063", 
    "population_proper": "12063"
  }, 
  {
    "city": "Santa Lucía", 
    "lat": "10.3247", 
    "lng": "-74.9589", 
    "country": "Colombia", 
    "iso2": "CO", 
    "admin_name": "Atlántico", 
    "capital": "minor", 
    "population": "11947", 
    "population_proper": "11947"
  }, 
  {
    "city": "Puente Nacional", 
    "lat": "5.8772", 
    "lng": "-73.6786", 
    "country": "Colombia", 
    "iso2": "CO", 
    "admin_name": "Santander", 
    "capital": "minor", 
    "population": "11718", 
    "population_proper": "11718"
  }, 
  {
    "city": "La Unión", 
    "lat": "8.8572", 
    "lng": "-75.2767", 
    "country": "Colombia", 
    "iso2": "CO", 
    "admin_name": "Sucre", 
    "capital": "minor", 
    "population": "11566", 
    "population_proper": "11566"
  }, 
  {
    "city": "Cisneros", 
    "lat": "6.5383", 
    "lng": "-75.0886", 
    "country": "Colombia", 
    "iso2": "CO", 
    "admin_name": "Antioquia", 
    "capital": "minor", 
    "population": "11555", 
    "population_proper": "11555"
  }, 
  {
    "city": "Guayabal", 
    "lat": "5.0306", 
    "lng": "-74.8844", 
    "country": "Colombia", 
    "iso2": "CO", 
    "admin_name": "Tolima", 
    "capital": "minor", 
    "population": "11490", 
    "population_proper": "11490"
  }, 
  {
    "city": "Talaigua Nuevo", 
    "lat": "9.3028", 
    "lng": "-74.5678", 
    "country": "Colombia", 
    "iso2": "CO", 
    "admin_name": "Bolívar", 
    "capital": "minor", 
    "population": "11350", 
    "population_proper": "11350"
  }, 
  {
    "city": "Coveñas", 
    "lat": "9.4014", 
    "lng": "-75.6800", 
    "country": "Colombia", 
    "iso2": "CO", 
    "admin_name": "Sucre", 
    "capital": "minor", 
    "population": "11270", 
    "population_proper": "11270"
  }, 
  {
    "city": "Bojacá", 
    "lat": "4.7336", 
    "lng": "-74.3422", 
    "country": "Colombia", 
    "iso2": "CO", 
    "admin_name": "Cundinamarca", 
    "capital": "minor", 
    "population": "11254", 
    "population_proper": "11254"
  }, 
  {
    "city": "El Playón", 
    "lat": "7.4703", 
    "lng": "-73.2033", 
    "country": "Colombia", 
    "iso2": "CO", 
    "admin_name": "Santander", 
    "capital": "minor", 
    "population": "11252", 
    "population_proper": "11252"
  }, 
  {
    "city": "El Águila", 
    "lat": "4.9081", 
    "lng": "-76.0422", 
    "country": "Colombia", 
    "iso2": "CO", 
    "admin_name": "Valle del Cauca", 
    "capital": "minor", 
    "population": "11069", 
    "population_proper": "11069"
  }, 
  {
    "city": "Agua de Dios", 
    "lat": "4.3781", 
    "lng": "-74.6683", 
    "country": "Colombia", 
    "iso2": "CO", 
    "admin_name": "Cundinamarca", 
    "capital": "minor", 
    "population": "10995", 
    "population_proper": "10995"
  }, 
  {
    "city": "El Tarra", 
    "lat": "8.5756", 
    "lng": "-73.0944", 
    "country": "Colombia", 
    "iso2": "CO", 
    "admin_name": "Norte de Santander", 
    "capital": "minor", 
    "population": "10957", 
    "population_proper": "10957"
  }, 
  {
    "city": "Mogotes", 
    "lat": "6.4764", 
    "lng": "-72.9703", 
    "country": "Colombia", 
    "iso2": "CO", 
    "admin_name": "Santander", 
    "capital": "minor", 
    "population": "10860", 
    "population_proper": "10860"
  }, 
  {
    "city": "Santo Domingo", 
    "lat": "6.4708", 
    "lng": "-75.1658", 
    "country": "Colombia", 
    "iso2": "CO", 
    "admin_name": "Antioquia", 
    "capital": "minor", 
    "population": "10759", 
    "population_proper": "10759"
  },